Restaurant,Latitude,Longitude,Address,PlaceID,URL,AverageExposure,Stars,ZIP,Count,White,ofWhite,WN,Black,ofBlack,BN,AmericanIndaian,ofAI,AIN,Asian,ofAisan,AN,NativeHawiian,ofNativeHawiian,NHN,Edu,ofEDU,HED,Unemployment,HUne,Wealth,HWe,Attraction,Hotspot
Sushi On The Fly,61.1755446,-149.9835847,"5000 W International Airport Rd, Anchorage, AK 99502, United States",ChIJnfzlt7OiyFYRHX499dENNR0,/biz/sushi-on-the-fly-anchorage?osq=Restaurants,0.160540587146763,4,99502,17,15845,62.8,1,588,2.3,0,2954,11.7,1,2149,8.5,0,516,2,0,1161,25.2,0,5.4,1,94355,1,1,0
Silver Gulch Brewing & Bottling,61.1738418,-149.9828571,"5000 W International Airport Rd, Anchorage, AK 99502, United States",ChIJ63i4ibGiyFYRxLQSk3B4Jek,/biz/silver-gulch-brewing-and-bottling-anchorage-2?osq=Restaurants,0.051246033491224,4.2,99577,32,22970,84,1,425,1.6,0,638,2.3,0,588,2.2,0,175,0.6,0,1801,39,1,3.5,1,111388,1,1,0
Norton Sound Seafood House,61.1734641,-149.9821342,"5000 W International Airport Rd, Anchorage, AK 99502, United States",ChIJBcO49LGiyFYRz9CJiXOrUdE,/biz/norton-sound-seafood-house-anchorage?osq=Restaurants,0.0042221789448078,3.8,99501,77,9223,57.8,0,1150,7.2,1,2000,12.5,1,1059,6.6,0,520,3.3,1,1160,34.8,0,7.2,1,61509,0,1,0
Kincaid Grill,61.1599417,-149.9527306,"6700 Jewel Lake Rd, Anchorage, AK 99502, United States",ChIJt5vPfA-YyFYRc-c1QODBeRA,/biz/kincaid-grill-anchorage?osq=Restaurants,0.18690238525004,4.6,99502,17,15845,62.8,1,588,2.3,0,2954,11.7,1,2149,8.5,0,516,2,0,1161,25.2,0,5.4,1,94355,1,1,0
Shanghai Tea Garden,61.1382213,-149.9526185,"9150 Jewel Lake Rd, Anchorage, AK 99502, United States",ChIJr2GXymmYyFYRRXBomeuRz_E,/biz/shanghai-tea-garden-anchorage-3?osq=Restaurants,0.0211406066908562,3.5,99503,121,6167,47.4,0,1429,11,1,1206,9.3,1,1859,14.3,1,155,1.2,0,990,36.1,0,7.9,1,63338,0,0,0
Pipers Restaurant and Sports Lounge,61.1749657,-149.9484967,"3450 Aviation Ave, Anchorage, AK 99502, United States",ChIJt-9JNP6XyFYRUBnBBcYGlW0,/biz/pipers-restaurant-and-sports-lounge-anchorage-2?osq=Restaurants,0.125878305624365,3.3,99577,32,22970,84,1,425,1.6,0,638,2.3,0,588,2.2,0,175,0.6,0,1801,39,1,3.5,1,111388,1,1,0
Thirty Six Bistro,61.1757679,-149.9430422,"4901 Spenard Rd, Anchorage, AK 99517, United States",ChIJUaPyYf6XyFYRVhdAotDkNo0,/biz/thirty-six-bistro-anchorage?osq=Restaurants,0.0042125362705015,3.4,99577,32,22970,84,1,425,1.6,0,638,2.3,0,588,2.2,0,175,0.6,0,1801,39,1,3.5,1,111388,1,1,0
Fancy Moose Lounge,61.1776141,-149.9425904,"4800 Spenard Rd, Anchorage, AK 99517, United States",ChIJrwPQxP2XyFYR72K-8-TLaqM,/biz/fancy-moose-lounge-anchorage?osq=Restaurants,0.135032815739227,3,99518,22,6234,58.1,0,259,2.4,0,553,5.2,0,1298,12.1,1,192,1.8,0,587,21.2,0,3,0,84045,0,1,0
Flying Machine Restaurant,61.1777657,-149.9420715,"4800 Spenard Rd, Anchorage, AK 99517, United States",ChIJV7pa0f2XyFYRuvAWSxdQaBc,/biz/flying-machine-restaurant-anchorage?osq=Restaurants,0.128674855585524,2.8,99518,22,6234,58.1,0,259,2.4,0,553,5.2,0,1298,12.1,1,192,1.8,0,587,21.2,0,3,0,84045,0,1,0
Jinmi Korean Restaurant,61.1798507,-149.9379702,"4505 Spenard Rd Suite A, Anchorage, AK 99517, United States",ChIJfbrNHP2XyFYRnR_CNGISFGk,/biz/jinmi-korean-restaurant-anchorage?osq=Restaurants,0.175340576085977,4.1,99517,17,10461,66.2,1,581,3.7,0,1160,7.3,1,1605,10.2,1,259,1.6,0,1255,47.1,1,6.4,1,82619,0,1,0
Capri Pizza,61.1797322,-149.937812,"4505 Spenard Rd UNIT C, Anchorage, AK 99517, United States",ChIJfbrNHP2XyFYRurLTxu7j9n0,/biz/capri-pizza-anchorage?osq=Restaurants,0.0382161922223317,3,99503,121,6167,47.4,0,1429,11,1,1206,9.3,1,1859,14.3,1,155,1.2,0,990,36.1,0,7.9,1,63338,0,0,0
Fukumaru Teriyaki,61.1797684,-149.9374491,"4505 Spenard Rd, Anchorage, AK 99517, United States",ChIJfbrNHP2XyFYRNMl13CgWt5I,/biz/fukumaru-teriyaki-anchorage?osq=Restaurants,0.162367188687442,4.1,99518,22,6234,58.1,0,259,2.4,0,553,5.2,0,1298,12.1,1,192,1.8,0,587,21.2,0,3,0,84045,0,1,0
Rustic Goat,61.1951164,-149.9356201,"2800 Turnagain St, Anchorage, AK 99517, United States",ChIJo4KFq2C9yFYR1xm_rygB5Kc,/biz/rustic-goat-anchorage?osq=Restaurants,0.172518005503763,3.6,99517,17,10461,66.2,1,581,3.7,0,1160,7.3,1,1605,10.2,1,259,1.6,0,1255,47.1,1,6.4,1,82619,0,1,0
Gwennies Old Alaska Restaurant,61.1818728,-149.9327161,"4333 Spenard Rd, Anchorage, AK 99517, United States",ChIJpXZvL-OXyFYR737JPrpzBNs,/biz/gwennies-old-alaska-restaurant-anchorage-2?osq=Restaurants,0.158246829522928,3.4,99503,121,6167,47.4,0,1429,11,1,1206,9.3,1,1859,14.3,1,155,1.2,0,990,36.1,0,7.9,1,63338,0,0,0
Fiori D'Italia,61.1857628,-149.9301128,"2502 McRae Rd, Anchorage, AK 99517, United States",ChIJNTLkL-KXyFYRqFWxmaRgy40,/biz/fiori-d-italia-anchorage-3?osq=Restaurants,0.177986491817649,3.8,99517,17,10461,66.2,1,581,3.7,0,1160,7.3,1,1605,10.2,1,259,1.6,0,1255,47.1,1,6.4,1,82619,0,1,0
The Writer's Block Bookstore & Cafe,61.1844834,-149.9261851,"3956 Spenard Rd, Anchorage, AK 99517, United States",ChIJ13tR7OOXyFYROgdMLOiSY3w,/biz/the-writers-block-bookstore-and-cafe-anchorage-2?osq=Restaurants,0.127378301584666,4.7,99503,121,6167,47.4,0,1429,11,1,1206,9.3,1,1859,14.3,1,155,1.2,0,990,36.1,0,7.9,1,63338,0,0,0
Thai Siam,61.1856711,-149.9190263,"3801 Lois Dr, Anchorage, AK 99517, United States",ChIJm2YyleaXyFYR0sJxvchQXaE,/biz/thai-siam-anchorage?osq=Restaurants,0.0211902094804323,4.3,99503,121,6167,47.4,0,1429,11,1,1206,9.3,1,1859,14.3,1,155,1.2,0,990,36.1,0,7.9,1,63338,0,0,0
Spenard Joe's,61.1858061,-149.9181189,"3831 Spenard Rd, Anchorage, AK 99517, United States",ChIJtR66pd-XyFYRXOCR1-J9sew,/biz/spenard-joes-anchorage?osq=Restaurants,0.130822581906029,5,99503,121,6167,47.4,0,1429,11,1,1206,9.3,1,1859,14.3,1,155,1.2,0,990,36.1,0,7.9,1,63338,0,0,0
Wingstop,61.1949982,-149.9179611,"1818 W Northern Lights Blvd #105, Anchorage, AK 99517, United States",ChIJM-DCG9-XyFYRqyZqdkNlGpE,/biz/wingstop-anchorage-3?osq=Restaurants,0.068217033368142,3.8,99501,77,9223,57.8,0,1150,7.2,1,2000,12.5,1,1059,6.6,0,520,3.3,1,1160,34.8,0,7.2,1,61509,0,1,0
Pho Lotus,61.1865267,-149.9174551,"3826 Spenard Rd, Anchorage, AK 99517, United States",ChIJx31Rw0-XyFYR3e4p1-ukiiA,/biz/pho-lotus-anchorage?osq=Restaurants,0.125920176452357,3.9,99502,17,15845,62.8,1,588,2.3,0,2954,11.7,1,2149,8.5,0,516,2,0,1161,25.2,0,5.4,1,94355,1,1,0
Kami Ramen,61.1862278,-149.9158522,"3807 Spenard Rd, Anchorage, AK 99517, United States",ChIJ2wT7DhWXyFYRXvfLHRF8Duc,/biz/kami-ramen-anchorage?osq=Restaurants,0.264061740256314,4.6,99517,17,10461,66.2,1,581,3.7,0,1160,7.3,1,1605,10.2,1,259,1.6,0,1255,47.1,1,6.4,1,82619,0,1,0
Siam Cuisine,61.1383083,-149.9157768,"1911 W Dimond Blvd, Anchorage, AK 99515, United States",ChIJLfUm1jeYyFYRtrJKmtzSPcU,/biz/siam-cuisine-anchorage?osq=Restaurants,0.0709300500298823,4.1,99501,77,9223,57.8,0,1150,7.2,1,2000,12.5,1,1059,6.6,0,520,3.3,1,1160,34.8,0,7.2,1,61509,0,1,0
Eat'alia,61.1390792,-149.9157289,"1921 W Dimond Blvd #112, Anchorage, AK 99515, United States",ChIJC-MSizyZyFYREMQm3vygnJQ,/biz/eatalia-anchorage?osq=Restaurants,0.163278378228246,4,99515,80,15252,68.6,1,471,2.1,0,1002,4.5,0,1635,7.4,0,711,3.2,1,1098,39,1,4,1,106755,1,0,0
Little Dipper Diner,61.1391415,-149.9156102,"1921 W Dimond Blvd #106, Anchorage, AK 99515, United States",ChIJSWIcxTeYyFYR5wlLWc3W5Y4,/biz/little-dipper-diner-anchorage?osq=Restaurants,0.180804481201012,4.3,99515,80,15252,68.6,1,471,2.1,0,1002,4.5,0,1635,7.4,0,711,3.2,1,1098,39,1,4,1,106755,1,0,0
Manila Bake Bakery & Cafe,61.1928368,-149.9154297,"3020 Minnesota Dr #8C, Anchorage, AK 99503, United States",ChIJ8670ht6XyFYRcwLE0hignp4,/biz/manila-bake-bakery-and-cafe-anchorage?osq=Restaurants,0.0867848128372533,4.7,99504,62,21807,52.2,0,4213,10.1,1,2973,7.1,0,4912,11.8,1,1703,4.1,1,1965,27.5,0,5.4,1,75956,0,0,1
Bahay Kubo Restaurant,61.1925953,-149.9150176,"3020 Minnesota Dr # 13, Anchorage, AK 99517, United States",ChIJveM8lKqXyFYRvxFOWNoeoWs,/biz/bahay-kubo-restaurant-anchorage?osq=Restaurants,0.069817751420294,3.3,99503,121,6167,47.4,0,1429,11,1,1206,9.3,1,1859,14.3,1,155,1.2,0,990,36.1,0,7.9,1,63338,0,0,1
Peter's Sushi Spot,61.1929644,-149.915015,"3020 Minnesota Dr, Anchorage, AK 99503, United States",ChIJc3Lk-r-XyFYRX6UR5zCWzlc,/biz/peters-sushi-spot-anchorage-3?osq=Restaurants,0.120858554480451,3.8,99503,121,6167,47.4,0,1429,11,1,1206,9.3,1,1859,14.3,1,155,1.2,0,990,36.1,0,7.9,1,63338,0,0,1
Home Town Restaurant,61.1925582,-149.914712,"3020 Minnesota Dr, Anchorage, AK 99503, United States",ChIJVzXvI9mXyFYRWTwHWivC-Bw,/biz/home-town-restaurant-anchorage?osq=Restaurants,0.153602946547707,4.2,99501,77,9223,57.8,0,1150,7.2,1,2000,12.5,1,1059,6.6,0,520,3.3,1,1160,34.8,0,7.2,1,61509,0,1,1
Antonios Greek Bakery & Cafe,61.1925588,-149.914436,"3020 Minnesota Dr Suite 19A, Anchorage, AK 99517, United States",ChIJ_____8KXyFYRyKqRMXYN0SM,/biz/antonios-greek-bakery-and-cafe-anchorage?osq=Restaurants,0.0831049366651837,4.2,99517,17,10461,66.2,1,581,3.7,0,1160,7.3,1,1605,10.2,1,259,1.6,0,1255,47.1,1,6.4,1,82619,0,1,1
Top Bop - Midtown,61.1925594,-149.9142211,"3020 Minnesota Dr UNIT 20, Anchorage, AK 99503, United States",ChIJTR6-fd6XyFYRtcXBmcRSCu0,/biz/top-bop-midtown-anchorage-2?osq=Restaurants,0.0830177520083443,4.3,99503,121,6167,47.4,0,1429,11,1,1206,9.3,1,1859,14.3,1,155,1.2,0,990,36.1,0,7.9,1,63338,0,0,1
Naruto Japanese Restaurant,61.1878116,-149.913815,"3600 Minnesota Dr, Anchorage, AK 99503, United States",ChIJM8K4dOeXyFYR9tuYTA2tBUA,/biz/naruto-japanese-restaurant-anchorage?osq=Restaurants,0.13812173070991,4.2,99507,46,20110,55.2,0,1159,3.2,0,3042,8.4,1,6913,19,1,623,1.7,0,2127,30.2,0,4.7,1,88485,0,1,0
Sami's City Diner,61.1932192,-149.9136468,"3000 Minnesota Dr, Anchorage, AK 99503, United States",ChIJw5cWm96XyFYRD6XTTfJMFjI,/biz/sami-s-city-diner-anchorage?osq=Restaurants,0.042788686815748,3.4,99518,22,6234,58.1,0,259,2.4,0,553,5.2,0,1298,12.1,1,192,1.8,0,587,21.2,0,3,0,84045,0,1,1
Chicken Shack,61.1955793,-149.9114523,"1443 W Northern Lights Blvd p, Anchorage, AK 99503, United States",ChIJFWMATNmXyFYRnhakGcqwQ-A,/biz/chicken-shack-anchorage-4?osq=Restaurants,0.163325924153472,3.6,99503,121,6167,47.4,0,1429,11,1,1206,9.3,1,1859,14.3,1,155,1.2,0,990,36.1,0,7.9,1,63338,0,0,1
Yak & Yeti,61.1945897,-149.908894,"1360 W Northern Lights Blvd, Anchorage, AK 99507, United States",ChIJKWr9U9mXyFYRvpghWOg3pPo,/biz/yak-and-yeti-anchorage-3?osq=Restaurants,0.106655705777791,3.8,99503,121,6167,47.4,0,1429,11,1,1206,9.3,1,1859,14.3,1,155,1.2,0,990,36.1,0,7.9,1,63338,0,0,1
907 Wingman,61.1884155,-149.9079825,"3505 Spenard Rd, Anchorage, AK 99503, United States",ChIJ4-dvWd2XyFYR-dL2s0DiD_0,/biz/907-wingman-anchorage?osq=Restaurants,0.109058451156667,4.1,99508,30,15722,41.3,0,3106,8.2,1,5326,14,1,5151,13.5,1,2930,7.7,1,1605,25.3,0,6.5,1,65430,0,1,1
Middle Way Cafe,61.194649,-149.907902,"1200 W Northern Lights Blvd, Anchorage, AK 99503, United States",ChIJH666iNuXyFYRNH0w9oXIJQ8,/biz/middle-way-cafe-anchorage?osq=Restaurants,0.166166191195201,3.8,99504,62,21807,52.2,0,4213,10.1,1,2973,7.1,0,4912,11.8,1,1703,4.1,1,1965,27.5,0,5.4,1,75956,0,0,1
Arigato Japanese Restaurant,61.1896443,-149.9077685,"3315 Spenard Rd, Anchorage, AK 99503, United States",ChIJvTm3FN2XyFYRKAzKyVuw8UE,/biz/arigato-japanese-restaurant-anchorage?osq=Restaurants,0.113891961625947,4,99502,17,15845,62.8,1,588,2.3,0,2954,11.7,1,2149,8.5,0,516,2,0,1161,25.2,0,5.4,1,94355,1,1,1
Hearth Artisan Pizza,61.1944166,-149.9076585,"1200 W Northern Lights Blvd F, Anchorage, AK 99503, United States",ChIJm9wS9tuXyFYRBDO5JCLDaM8,/biz/hearth-artisan-pizza-anchorage?osq=Restaurants,0.115072628440317,4.2,99503,121,6167,47.4,0,1429,11,1,1206,9.3,1,1859,14.3,1,155,1.2,0,990,36.1,0,7.9,1,63338,0,0,1
Pho Lena,61.1898662,-149.9074335,"3311 Spenard Rd, Anchorage, AK 99503, United States",ChIJTcDRftyXyFYRbKNECWui_R8,/biz/pho-lena-anchorage?osq=Restaurants,0.12710798736545,4.1,99503,121,6167,47.4,0,1429,11,1,1206,9.3,1,1859,14.3,1,155,1.2,0,990,36.1,0,7.9,1,63338,0,0,1
Pho and Thai,61.1898662,-149.9074335,"3311 Spenard Rd, Anchorage, AK 99503, United States",ChIJTcDRftyXyFYRbKNECWui_R8,/biz/pho-and-thai-eagle-river?osq=Restaurants,0.0169021961264615,3.7,99503,121,6167,47.4,0,1429,11,1,1206,9.3,1,1859,14.3,1,155,1.2,0,990,36.1,0,7.9,1,63338,0,0,1
Bear Tooth Theatre Pub,61.1960835,-149.9070257,"1230 W 27th Ave, Anchorage, AK 99503, United States",ChIJM_p-3NuXyFYRo0t0DbH0yow,/biz/bear-tooth-theatre-pub-anchorage?osq=Restaurants,0.179510256593442,4.3,99503,121,6167,47.4,0,1429,11,1,1206,9.3,1,1859,14.3,1,155,1.2,0,990,36.1,0,7.9,1,63338,0,0,1
Bear Tooth Grill,61.1960835,-149.9070257,"1230 W 27th Ave, Anchorage, AK 99503, United States",ChIJM_p-3NuXyFYRo0t0DbH0yow,/biz/bear-tooth-grill-anchorage-2?osq=Restaurants,0.152307095530541,4.1,99515,80,15252,68.6,1,471,2.1,0,1002,4.5,0,1635,7.4,0,711,3.2,1,1098,39,1,4,1,106755,1,0,1
Yak & Yeti Himalayan Restaurant,61.1906628,-149.9069418,"3301 Spenard Rd, Anchorage, AK 99503, United States",ChIJhUD4HN2XyFYRCWv6f3MeGRQ,/biz/yak-and-yeti-himalayan-restaurant-anchorage?osq=Restaurants,0.127210759408009,3.9,99503,121,6167,47.4,0,1429,11,1,1206,9.3,1,1859,14.3,1,155,1.2,0,990,36.1,0,7.9,1,63338,0,0,1
Jackie's Place Restaurant,61.1965274,-149.9068462,"2632 Spenard Rd, Anchorage, AK 99503, United States",ChIJ6eQbztuXyFYRFHYhcuhcuIQ,/biz/jackies-place-restaurant-anchorage?osq=Restaurants,0.122730913871971,4,99518,22,6234,58.1,0,259,2.4,0,553,5.2,0,1298,12.1,1,192,1.8,0,587,21.2,0,3,0,84045,0,1,1
Tatilani,61.1927,-149.9068226,"3002 Spenard Rd #101, Anchorage, AK 99503, United States",ChIJbdNKXLiXyFYRkV_zwbVY8LU,/biz/tatilani-anchorage-2?osq=Restaurants,0.190615824138784,4.4,99503,121,6167,47.4,0,1429,11,1,1206,9.3,1,1859,14.3,1,155,1.2,0,990,36.1,0,7.9,1,63338,0,0,1
Pancho's Villa,61.1919739,-149.9067303,"3104 Spenard Rd, Anchorage, AK 99503, United States",ChIJYa2m89yXyFYRQwd_wOyxGco,/biz/panchos-villa-anchorage?osq=Restaurants,0.0338902347776467,4.1,99503,121,6167,47.4,0,1429,11,1,1206,9.3,1,1859,14.3,1,155,1.2,0,990,36.1,0,7.9,1,63338,0,0,1
Ray's Place,61.1986143,-149.9060186,"2412 Spenard Rd, Anchorage, AK 99503, United States",ChIJecm6jNmXyFYRe18t6P2lLI4,/biz/rays-place-anchorage-2?osq=Restaurants,0.14875384676462,4.3,99503,121,6167,47.4,0,1429,11,1,1206,9.3,1,1859,14.3,1,155,1.2,0,990,36.1,0,7.9,1,63338,0,0,1
Momma O's Seafood,61.1966667,-149.9058334,"2636 Spenard Rd, Anchorage, AK 99503, United States",ChIJ6eQbztuXyFYRy--BFwXLaME,/biz/momma-os-seafood-anchorage?osq=Restaurants,0.136574127526558,3.8,99515,80,15252,68.6,1,471,2.1,0,1002,4.5,0,1635,7.4,0,711,3.2,1,1098,39,1,4,1,106755,1,0,1
So Thai,61.1972495,-149.905755,"2602 Spenard Rd, Anchorage, AK 99503, United States",ChIJefhoLNqXyFYRfh1isWuhSn4,/biz/so-thai-anchorage-2?osq=Restaurants,0.154599578413665,4.4,99503,121,6167,47.4,0,1429,11,1,1206,9.3,1,1859,14.3,1,155,1.2,0,990,36.1,0,7.9,1,63338,0,0,1
Pizza Olympia,61.1947948,-149.9050394,"2809 Spenard Rd, Anchorage, AK 99503, United States",ChIJaRjekNuXyFYRRM9p6-erGkY,/biz/pizza-olympia-anchorage?osq=Restaurants,0.10105282472834,4.3,99503,121,6167,47.4,0,1429,11,1,1206,9.3,1,1859,14.3,1,155,1.2,0,990,36.1,0,7.9,1,63338,0,0,1
Market Juice,61.1969513,-149.9049707,"2601 Spenard Rd #1, Anchorage, AK 99503, United States",ChIJjwIcM9qXyFYRIuwwN5afea0,/biz/market-juice-anchorage?osq=Restaurants,0.042490002776716,4.6,99503,121,6167,47.4,0,1429,11,1,1206,9.3,1,1859,14.3,1,155,1.2,0,990,36.1,0,7.9,1,63338,0,0,1
Tiki Pete's Alaskan Dogs,61.1983419,-149.9049274,"2435 Spenard Rd, Anchorage, AK 99503, United States",ChIJ7x9tMiiWyFYRHJdIful0Hkg,/biz/tiki-petes-alaskan-dogs-anchorage-3?osq=Restaurants,0.11436002756853,4.7,99515,80,15252,68.6,1,471,2.1,0,1002,4.5,0,1635,7.4,0,711,3.2,1,1098,39,1,4,1,106755,1,0,1
Tommy's Burger Stop,61.1936183,-149.904513,"1106 W 29th Pl, Anchorage, AK 99503, United States",ChIJb6YSfNuXyFYRz_IJ3v2JPKc,/biz/tommys-burger-stop-anchorage?osq=Restaurants,0.173536722685986,4.5,99503,121,6167,47.4,0,1429,11,1,1206,9.3,1,1859,14.3,1,155,1.2,0,990,36.1,0,7.9,1,63338,0,0,1
Simon & Seafort's Saloon & Grill,61.2179842,-149.9043854,"420 L St, Anchorage, AK 99501, United States",ChIJn5_VXoG9yFYR9CeiXUVguBc,/biz/simon-and-seaforts-saloon-and-grill-anchorage-2?osq=Restaurants,0.327544027725035,3.9,99501,77,9223,57.8,0,1150,7.2,1,2000,12.5,1,1059,6.6,0,520,3.3,1,1160,34.8,0,7.2,1,61509,0,1,1
El Green-Go's,61.2184649,-149.9043208,"390 L St, Anchorage, AK 99501, United States",ChIJmRvjd5a9yFYRKp9oEFWUds8,/biz/el-green-gos-anchorage-3?osq=Restaurants,0.133167160682849,4.7,99503,121,6167,47.4,0,1429,11,1,1206,9.3,1,1859,14.3,1,155,1.2,0,990,36.1,0,7.9,1,63338,0,0,1
Benihana,61.2145063,-149.9041695,"1100 W 8th Ave, Anchorage, AK 99501, United States",ChIJqZRXtoG9yFYRZVZgi8zHwgc,/biz/benihana-anchorage?osq=Restaurants,0.0127639444969497,3.9,99507,46,20110,55.2,0,1159,3.2,0,3042,8.4,1,6913,19,1,623,1.7,0,2127,30.2,0,4.7,1,88485,0,1,0
Kobe Teppayaki House,61.2145063,-149.9041695,"1100 W 8th Ave, Anchorage, AK 99501, United States",ChIJqZRXtoG9yFYRZVZgi8zHwgc,/biz/kobe-teppayaki-house-anchorage?osq=Restaurants,0.118956452898483,2.8,99515,80,15252,68.6,1,471,2.1,0,1002,4.5,0,1635,7.4,0,711,3.2,1,1098,39,1,4,1,106755,1,0,0
International House of Hot Dogs & Goodies,61.2182604,-149.9034791,"415 L St, Anchorage, AK 99501, United States",ChIJ78CedrW9yFYROjlspxgRMD4,/biz/international-house-of-hot-dogs-and-goodies-anchorage?osq=Restaurants,0.157838854482678,4.8,99501,77,9223,57.8,0,1150,7.2,1,2000,12.5,1,1059,6.6,0,520,3.3,1,1160,34.8,0,7.2,1,61509,0,1,1
Snow City Cafe,61.2184456,-149.9033811,"1034 W 4th Ave, Anchorage, AK 99501, United States",ChIJQcnnU4G9yFYRRfrr7uDX1Rs,/biz/snow-city-cafe-anchorage?osq=Restaurants,0.410760289354713,4.3,99501,77,9223,57.8,0,1150,7.2,1,2000,12.5,1,1059,6.6,0,520,3.3,1,1160,34.8,0,7.2,1,61509,0,1,1
Spenard Roadhouse,61.1954476,-149.9031382,"1049 W Northern Lights Blvd, Anchorage, AK 99503, United States",ChIJFRAGpNuXyFYRudEsUXaA4Ys,/biz/spenard-roadhouse-anchorage?osq=Restaurants,0.25652465852078,4.1,99503,121,6167,47.4,0,1429,11,1,1206,9.3,1,1859,14.3,1,155,1.2,0,990,36.1,0,7.9,1,63338,0,0,1
Inlet PubHouse,61.2101936,-149.9026429,"1020 W 12th Ave, Anchorage, AK 99501, United States",ChIJN28G2X-9yFYRMD5NlTlSppU,/biz/inlet-pubhouse-anchorage?osq=Restaurants,0.139110307011088,3.5,99503,121,6167,47.4,0,1429,11,1,1206,9.3,1,1859,14.3,1,155,1.2,0,990,36.1,0,7.9,1,63338,0,0,0
Benny's Food Wagon,61.1946393,-149.9023095,"913 Photo Ave, Anchorage, AK 99503, United States",ChIJYyojDduXyFYRvDsbhFEu1Dc,/biz/bennys-food-wagon-anchorage?osq=Restaurants,0.0211688521751508,4.5,99515,80,15252,68.6,1,471,2.1,0,1002,4.5,0,1635,7.4,0,711,3.2,1,1098,39,1,4,1,106755,1,0,1
Fire Island Rustic Bakeshop,61.2153023,-149.9021527,"718 K St, Anchorage, AK 99501, United States",ChIJfwCs6dSXyFYRS-bVg_88uxw,/biz/fire-island-rustic-bakeshop-anchorage?osq=Restaurants,0.212125914519652,4.4,99501,77,9223,57.8,0,1150,7.2,1,2000,12.5,1,1059,6.6,0,520,3.3,1,1160,34.8,0,7.2,1,61509,0,1,0
Moose A'la Mode,61.2187455,-149.9019017,"360 K St, Anchorage, AK 99501, United States",ChIJ9RKXsoa9yFYR_f3eHnzBL5k,/biz/moose-ala-mode-anchorage?osq=Restaurants,0.118082548345268,4.1,99503,121,6167,47.4,0,1429,11,1,1206,9.3,1,1859,14.3,1,155,1.2,0,990,36.1,0,7.9,1,63338,0,0,1
Pel Meni Dumplings,61.2177101,-149.9018781,"434 K St, Anchorage, AK 99501, United States",ChIJwYObdTy9yFYRziWn7UvkTFE,/biz/pel-meni-dumplings-anchorage?osq=Restaurants,0.19833260158414,4.4,99501,77,9223,57.8,0,1150,7.2,1,2000,12.5,1,1059,6.6,0,520,3.3,1,1160,34.8,0,7.2,1,61509,0,1,1
Russian Eats,61.2177101,-149.9018781,"434 K St, Anchorage, AK 99501, United States",ChIJwYObdTy9yFYRziWn7UvkTFE,/biz/russian-eats-anchorage?osq=Restaurants,0.114783517646946,5,99503,121,6167,47.4,0,1429,11,1,1206,9.3,1,1859,14.3,1,155,1.2,0,990,36.1,0,7.9,1,63338,0,0,1
Sandwich Deck,61.2183852,-149.9018294,"400 K St, Anchorage, AK 99501, United States",ChIJ6VAwT4G9yFYRrQ_T_scfZLA,/biz/sandwich-deck-anchorage-2?osq=Restaurants,0.120923929029047,3.8,99507,46,20110,55.2,0,1159,3.2,0,3042,8.4,1,6913,19,1,623,1.7,0,2127,30.2,0,4.7,1,88485,0,1,1
L'Aroma Bakery & Deli @ New Sagaya Midtown Market,61.209437,-149.9005079,"900 W 13th Ave, Anchorage, AK 99501, United States",ChIJYRzQbdWXyFYRpNbq2gx_rAM,/biz/l-aroma-bakery-and-deli-new-sagaya-midtown-market-anchorage-3?osq=Restaurants,0.0168790180525104,3.8,99501,77,9223,57.8,0,1150,7.2,1,2000,12.5,1,1059,6.6,0,520,3.3,1,1160,34.8,0,7.2,1,61509,0,1,0
Crow's Nest,61.2177778,-149.9,"939 W 5th Ave, Anchorage, AK 99501, United States",ChIJoUUNNIG9yFYRePdi9vDW4DI,/biz/crows-nest-anchorage?osq=Restaurants,0.16015233295235,3.9,99503,121,6167,47.4,0,1429,11,1,1206,9.3,1,1859,14.3,1,155,1.2,0,990,36.1,0,7.9,1,63338,0,0,1
Fletcher's,61.217825,-149.8998115,"939 W 5th Ave, Anchorage, AK 99501, United States",ChIJoUUNNIG9yFYRIwlxJhOXHo8,/biz/fletchers-anchorage?osq=Restaurants,0.158154362467094,3.9,99501,77,9223,57.8,0,1150,7.2,1,2000,12.5,1,1059,6.6,0,520,3.3,1,1160,34.8,0,7.2,1,61509,0,1,1
Flight Deck Pizzeria,61.1732292,-149.8992155,"832 W International Airport Rd, Anchorage, AK 99518, United States",ChIJ3QxurJKXyFYRRaYTcHCsGuc,/biz/flight-deck-pizzeria-anchorage-5?osq=Restaurants,0.0653505691077897,4,99508,30,15722,41.3,0,3106,8.2,1,5326,14,1,5151,13.5,1,2930,7.7,1,1605,25.3,0,6.5,1,65430,0,1,1
Yamaya Seafood Restaurant,61.2166985,-149.8986248,"825 W 6th Ave, Anchorage, AK 99501, United States",ChIJVVN224C9yFYRmmjSJ1vPVj4,/biz/yamaya-seafood-restaurant-anchorage?osq=Restaurants,0.123557742549896,3.7,99501,77,9223,57.8,0,1150,7.2,1,2000,12.5,1,1059,6.6,0,520,3.3,1,1160,34.8,0,7.2,1,61509,0,1,1
Fromagio's Artisan Cheese,61.1887179,-149.8976303,"3555 Arctic Blvd c4, Anchorage, AK 99503, United States",ChIJL5xVnJWZyFYRZm-bBqh6MJs,/biz/fromagios-artisan-cheese-anchorage?osq=Restaurants,0.0213668624134401,4.1,99504,62,21807,52.2,0,4213,10.1,1,2973,7.1,0,4912,11.8,1,1703,4.1,1,1965,27.5,0,5.4,1,75956,0,0,0
Rush Espresso - Northern Lights,61.1954793,-149.8975673,"709 W Northern Lights Blvd, Anchorage, AK 99503, United States",ChIJ4dkH09qXyFYResqf1PL08k8,/biz/rush-espresso-northern-lights-anchorage?osq=Restaurants,0.0470337009854543,3.9,99517,17,10461,66.2,1,581,3.7,0,1160,7.3,1,1605,10.2,1,259,1.6,0,1255,47.1,1,6.4,1,82619,0,1,1
Sara's Sandwiches,61.1680606,-149.8973535,"5841 Arctic Blvd, Anchorage, AK 99518, United States",ChIJ0V_TRoyXyFYR1gIjP_WcRnY,/biz/saras-sandwiches-anchorage?osq=Restaurants,0.0771440545569437,3.8,99503,121,6167,47.4,0,1429,11,1,1206,9.3,1,1859,14.3,1,155,1.2,0,990,36.1,0,7.9,1,63338,0,0,0
Thai Delight Restaurant,61.1876631,-149.8973188,"3609 Arctic Blvd, Anchorage, AK 99503, United States",ChIJ0Y40UMKXyFYR3C-uKiYtMQ8,/biz/thai-delight-restaurant-anchorage?osq=Restaurants,0.038252252097829,4.2,99518,22,6234,58.1,0,259,2.4,0,553,5.2,0,1298,12.1,1,192,1.8,0,587,21.2,0,3,0,84045,0,1,0
Taste of India,61.1746935,-149.8971209,"5011 Arctic Blvd I, Anchorage, AK 99503, United States",ChIJjVxi_OKXyFYRfROqcoUrb18,/biz/taste-of-india-anchorage?osq=Restaurants,0.150873228744997,4.6,99507,46,20110,55.2,0,1159,3.2,0,3042,8.4,1,6913,19,1,623,1.7,0,2127,30.2,0,4.7,1,88485,0,1,1
Luigi's Pizza,61.1747907,-149.8970974,"5011 Arctic Blvd H, Anchorage, AK 99503, United States",ChIJRx6405KXyFYRakFJzWnU-9w,/biz/luigis-pizza-anchorage?osq=Restaurants,0.075139805995448,4,99515,80,15252,68.6,1,471,2.1,0,1002,4.5,0,1635,7.4,0,711,3.2,1,1098,39,1,4,1,106755,1,0,1
Lucky Kitchen,61.1750936,-149.8970902,"5011 Arctic Blvd B, Anchorage, AK 99503, United States",ChIJlSs30pKXyFYR3yEafyr82Ho,/biz/lucky-kitchen-anchorage?osq=Restaurants,0.104271858061434,3,99517,17,10461,66.2,1,581,3.7,0,1160,7.3,1,1605,10.2,1,259,1.6,0,1255,47.1,1,6.4,1,82619,0,1,1
Alaskan Burger & Brew,61.1745389,-149.8970669,"5121 Arctic Blvd H, Anchorage, AK 99503, United States",ChIJs0EHkN6XyFYRlpeSZqATTYc,/biz/alaskan-burger-and-brew-anchorage?osq=Restaurants,0.233805973703875,4.2,99503,121,6167,47.4,0,1429,11,1,1206,9.3,1,1859,14.3,1,155,1.2,0,990,36.1,0,7.9,1,63338,0,0,1
Sweet Caribou,61.1883046,-149.8965978,"701 W 36th Ave #19, Anchorage, AK 99503, United States",ChIJy_aGscOXyFYRFrH_k3JqUOA,/biz/sweet-caribou-anchorage?osq=Restaurants,0.0671600682760137,4.7,99501,77,9223,57.8,0,1150,7.2,1,2000,12.5,1,1059,6.6,0,520,3.3,1,1160,34.8,0,7.2,1,61509,0,1,0
Jens' Restaurant,61.1890855,-149.8965651,"701 W 36th Ave, Anchorage, AK 99503, United States",ChIJ90egSsKXyFYR6YQY4Bza5yA,/biz/jens-restaurant-anchorage?osq=Restaurants,0.216850990399188,4.3,99503,121,6167,47.4,0,1429,11,1,1206,9.3,1,1859,14.3,1,155,1.2,0,990,36.1,0,7.9,1,63338,0,0,0
Glacier BrewHouse,61.2178459,-149.8964654,"737 W 5th Ave #110, Anchorage, AK 99501, United States",ChIJ7bXHMYe9yFYRdVPg648EZGY,/biz/glacier-brewhouse-anchorage?osq=Restaurants,0.62220110333336,4,99501,77,9223,57.8,0,1150,7.2,1,2000,12.5,1,1059,6.6,0,520,3.3,1,1160,34.8,0,7.2,1,61509,0,1,1
Horizon's Cafe,61.2148174,-149.8963888,"701 W 8th Ave, Anchorage, AK 99501, United States",ChIJyzaeg4C9yFYRtzSj5SJeR5w,/biz/horizons-cafe-anchorage?osq=Restaurants,0.0220265359430892,3.7,99507,46,20110,55.2,0,1159,3.2,0,3042,8.4,1,6913,19,1,623,1.7,0,2127,30.2,0,4.7,1,88485,0,1,1
Orso,61.2177182,-149.8962191,"737 W 5th Ave, Anchorage, AK 99501, United States",ChIJ7bXHMYe9yFYR4rlzElC4dYY,/biz/orso-anchorage?osq=Restaurants,0.167706736526504,3.9,99501,77,9223,57.8,0,1150,7.2,1,2000,12.5,1,1059,6.6,0,520,3.3,1,1160,34.8,0,7.2,1,61509,0,1,1
Crush Wine Bistro & Cellar,61.2186852,-149.8959538,"328 G St, Anchorage, AK 99501, United States",ChIJLyGVmSmWyFYR6nWkIPTUEco,/biz/crush-wine-bistro-and-cellar-anchorage-2?osq=Restaurants,0.161199554657313,3.7,99501,77,9223,57.8,0,1150,7.2,1,2000,12.5,1,1059,6.6,0,520,3.3,1,1160,34.8,0,7.2,1,61509,0,1,1
Uncle Joe's Pizzeria Downtown,61.21792,-149.8958727,"428 G St, Anchorage, AK 99501, United States",ChIJU5qpMIe9yFYRvZX3Gmx0cNg,/biz/uncle-joes-pizzeria-downtown-anchorage?osq=Restaurants,0.092299751354976,3.9,99501,77,9223,57.8,0,1150,7.2,1,2000,12.5,1,1059,6.6,0,520,3.3,1,1160,34.8,0,7.2,1,61509,0,1,1
Pil's Deli,61.2184078,-149.8957439,"404 G St, Anchorage, AK 99501, United States",ChIJrzzkPIe9yFYRmtMC5Id5ikI,/biz/pils-deli-anchorage?osq=Restaurants,0.0476220144421813,4.1,99515,80,15252,68.6,1,471,2.1,0,1002,4.5,0,1635,7.4,0,711,3.2,1,1098,39,1,4,1,106755,1,0,1
Cajun Corner,61.2193725,-149.8957161,"302 G St, Anchorage, AK 99501, United States",ChIJzRcQ2bW9yFYRQ9Pu_Jr9Gco,/biz/cajun-corner-anchorage?osq=Restaurants,0.167137452949005,4.1,99518,22,6234,58.1,0,259,2.4,0,553,5.2,0,1298,12.1,1,192,1.8,0,587,21.2,0,3,0,84045,0,1,1
Great Alaska Pizza Company,61.195471,-149.8950073,"607 W Northern Lights Blvd #2, Anchorage, AK 99503, United States",ChIJe79VMcWXyFYRd7YFPLTbap8,/biz/great-alaska-pizza-company-anchorage-4?osq=Restaurants,0.0750261506372773,3.9,99503,121,6167,47.4,0,1429,11,1,1206,9.3,1,1859,14.3,1,155,1.2,0,990,36.1,0,7.9,1,63338,0,0,1
The Marx Bros Cafe,61.2196898,-149.89465,"627 W 3rd Ave, Anchorage, AK 99501, United States",ChIJ9fW-Boe9yFYRrCJkSjmpmf0,/biz/the-marx-bros-cafe-anchorage?osq=Restaurants,0.144705658331782,4.2,99577,32,22970,84,1,425,1.6,0,638,2.3,0,588,2.2,0,175,0.6,0,1801,39,1,3.5,1,111388,1,1,1
Eastern European Store & Deli,61.1885857,-149.8945725,"601 W 36th Ave #12, Anchorage, AK 99503, United States",ChIJoUMhz8OXyFYRVZDrBJ4uTPw,/biz/eastern-european-store-and-deli-anchorage?osq=Restaurants,0.104876038722886,4.6,99518,22,6234,58.1,0,259,2.4,0,553,5.2,0,1298,12.1,1,192,1.8,0,587,21.2,0,3,0,84045,0,1,0
Indian House Restaurant,61.1958541,-149.8942105,"555 W Northern Lights Blvd Suite 102, Anchorage, AK 99503, United States",ChIJ4VbdN8WXyFYRkUh77271fcQ,/biz/indian-house-restaurant-indian?osq=Restaurants,0.145284954858665,3.4,99503,121,6167,47.4,0,1429,11,1,1206,9.3,1,1859,14.3,1,155,1.2,0,990,36.1,0,7.9,1,63338,0,0,1
Bombay Deluxe Indian Restaurant,61.1958541,-149.8942105,"555 W Northern Lights Blvd Suite 102, Anchorage, AK 99503, United States",ChIJ4VbdN8WXyFYRkUh77271fcQ,/biz/bombay-deluxe-indian-restaurant-anchorage-2?osq=Restaurants,0.046855120627121,3.5,99503,121,6167,47.4,0,1429,11,1,1206,9.3,1,1859,14.3,1,155,1.2,0,990,36.1,0,7.9,1,63338,0,0,1
Humpy's Great Alaskan Alehouse,61.216342,-149.894083,"610 W 6th Ave, Anchorage, AK 99501, United States",ChIJ14LWxYC9yFYRkKKOyOoSric,/biz/humpys-great-alaskan-alehouse-anchorage?osq=Restaurants,0.192925018758708,3.6,99501,77,9223,57.8,0,1150,7.2,1,2000,12.5,1,1059,6.6,0,520,3.3,1,1160,34.8,0,7.2,1,61509,0,1,1
Humpy's Great Alaskan Alehouse,61.216342,-149.894083,"610 W 6th Ave, Anchorage, AK 99501, United States",ChIJ14LWxYC9yFYRkKKOyOoSric,/biz/humpys-great-alaskan-alehouse-anchorage-3?osq=Restaurants,0.122876822226313,2.8,99503,121,6167,47.4,0,1429,11,1,1206,9.3,1,1859,14.3,1,155,1.2,0,990,36.1,0,7.9,1,63338,0,0,1
Guido's Pizza,61.17463,-149.893939,"549 W International Airport Rd, Anchorage, AK 99503, United States",ChIJn4HXVpeXyFYR5EWDiT9sMvk,/biz/guidos-pizza-anchorage?osq=Restaurants,0.134031752182865,3.3,99540,4,282,93.7,1,10,3.3,0,9,3,0,0,0,0,0,0,0,0,0,0,0,0,80938,0,1,1
Alaska's Gourmet Subs,61.2157243,-149.8939197,"601 W 7th Ave, Anchorage, AK 99501, United States",ChIJf43CCCqWyFYRGWbaqsmqMmc,/biz/alaskas-gourmet-subs-anchorage?osq=Restaurants,0.127584380199194,4,99515,80,15252,68.6,1,471,2.1,0,1002,4.5,0,1635,7.4,0,711,3.2,1,1098,39,1,4,1,106755,1,0,1
Dragon Seafood Restaurant & Grill,61.1801952,-149.8938188,"560 W Tudor Rd, Anchorage, AK 99503, United States",ChIJDSjIF-uXyFYRM50iMLUhJFM,/biz/dragon-seafood-restaurant-and-grill-anchorage?osq=Restaurants,0.008441125314042,4,99503,121,6167,47.4,0,1429,11,1,1206,9.3,1,1859,14.3,1,155,1.2,0,990,36.1,0,7.9,1,63338,0,0,0
Hong Kong Spirit Food,61.1724557,-149.8937091,"570 W 53rd Ave, Anchorage, AK 99518, United States",ChIJjzpu_DSXyFYRKHfrvK1MNQw,/biz/hong-kong-spirit-food-anchorage-3?osq=Restaurants,0.21883185890039,4.6,99518,22,6234,58.1,0,259,2.4,0,553,5.2,0,1298,12.1,1,192,1.8,0,587,21.2,0,3,0,84045,0,1,1
Gia Dinh Pho and Vietnamese Cuisine,61.1738978,-149.8936778,"Suite #A1, 549 W International Airport Rd, Anchorage, AK 99518, United States",ChIJZfX1fW-XyFYRCe1KJPV6W_I,/biz/gia-dinh-pho-and-vietnamese-cuisine-anchorage?osq=Restaurants,0.201757440111131,4.7,99518,22,6234,58.1,0,259,2.4,0,553,5.2,0,1298,12.1,1,192,1.8,0,587,21.2,0,3,0,84045,0,1,1
Vip Restaurant,61.195766,-149.8936438,"555 W Northern Lights Blvd, Anchorage, AK 99503, United States",ChIJ4VbdN8WXyFYRaoyhuffGU50,/biz/vip-restaurant-anchorage?osq=Restaurants,0.0600845783465137,4,99515,80,15252,68.6,1,471,2.1,0,1002,4.5,0,1635,7.4,0,711,3.2,1,1098,39,1,4,1,106755,1,0,1
Jimmy's Sushi,61.1801927,-149.8934431,"550 W Tudor Rd, Anchorage, AK 99503, United States",ChIJ42dGlZOXyFYRJGMNdDRG5s4,/biz/jimmys-sushi-eagle-river?osq=Restaurants,0.127708319027889,4,99501,77,9223,57.8,0,1150,7.2,1,2000,12.5,1,1059,6.6,0,520,3.3,1,1160,34.8,0,7.2,1,61509,0,1,0
Jimmy's Asian Food,61.1801927,-149.8934431,"550 W Tudor Rd, Anchorage, AK 99503, United States",ChIJ42dGlZOXyFYRJGMNdDRG5s4,/biz/jimmys-asian-food-anchorage?osq=Restaurants,0.309114336333535,4.2,99503,121,6167,47.4,0,1429,11,1,1206,9.3,1,1859,14.3,1,155,1.2,0,990,36.1,0,7.9,1,63338,0,0,0
Williwaw,61.2163362,-149.8931782,"609 F St, Anchorage, AK 99501, United States",ChIJ4zaFASqWyFYROB07-2doj_k,/biz/williwaw-anchorage-2?osq=Restaurants,0.0472993873028457,2.5,99501,77,9223,57.8,0,1150,7.2,1,2000,12.5,1,1059,6.6,0,520,3.3,1,1160,34.8,0,7.2,1,61509,0,1,1
F Street Station,61.2189375,-149.8931451,"325 F St, Anchorage, AK 99501, United States",ChIJtc6fbYe9yFYRc5L6LTYU5gY,/biz/f-street-station-anchorage?osq=Restaurants,0.266537347480758,3.9,99501,77,9223,57.8,0,1150,7.2,1,2000,12.5,1,1059,6.6,0,520,3.3,1,1160,34.8,0,7.2,1,61509,0,1,1
The Broken Blender,61.2196497,-149.8929094,"535 W 3rd Ave, Anchorage, AK 99501, United States",ChIJMavkele9yFYRCri31txO1Xg,/biz/the-broken-blender-anchorage?osq=Restaurants,0.13678224368086,3.3,99503,121,6167,47.4,0,1429,11,1,1206,9.3,1,1859,14.3,1,155,1.2,0,990,36.1,0,7.9,1,63338,0,0,1
Yakishabu Sushi House,61.1440312,-149.8927687,"720 W Dimond Blvd, Anchorage, AK 99515, United States",ChIJMdQzoAOZyFYR1rEIFO_2Wyo,/biz/yakishabu-sushi-house-anchorage-4?osq=Restaurants,0.184925263035564,3.9,99515,80,15252,68.6,1,471,2.1,0,1002,4.5,0,1635,7.4,0,711,3.2,1,1098,39,1,4,1,106755,1,0,0
Haute Quarter Grill,61.2186851,-149.8925458,"525 W 4th Ave, Anchorage, AK 99501, United States",ChIJ74HaRG7ryFYRF3197YP_l8w,/biz/haute-quarter-grill-anchorage?osq=Restaurants,0.253780822476422,4.4,99501,77,9223,57.8,0,1150,7.2,1,2000,12.5,1,1059,6.6,0,520,3.3,1,1160,34.8,0,7.2,1,61509,0,1,1
Gumbo House,61.2164725,-149.8920661,"508 W 6th Ave, Anchorage, AK 99501, United States",ChIJcdfSYCqWyFYRr_9dreQnnWY,/biz/gumbo-house-anchorage?osq=Restaurants,0.155283957494701,3.4,99517,17,10461,66.2,1,581,3.7,0,1160,7.3,1,1605,10.2,1,259,1.6,0,1255,47.1,1,6.4,1,82619,0,1,1
Pangea - Temp. CLOSED,61.2165213329398,-149.891942860187,"508 W 6th Ave, Anchorage, AK 99501, United States",ChIJnVJrTKAXiYgReQVPjoETPFU,/biz/pangea-anchorage?osq=Restaurants,0.21479582165139,4.2,99501,77,9223,57.8,0,1150,7.2,1,2000,12.5,1,1059,6.6,0,520,3.3,1,1160,34.8,0,7.2,1,61509,0,1,0
Queen of Sheba Ethiopian Restaurant,61.1947283,-149.8918823,"2813 Dawson St, Anchorage, AK 99503, United States",ChIJLYcJ5XGXyFYRQiiZcCA4LbU,/biz/queen-of-sheba-ethiopian-restaurant-anchorage?osq=Restaurants,0.136092245198254,4.7,99503,121,6167,47.4,0,1429,11,1,1206,9.3,1,1859,14.3,1,155,1.2,0,990,36.1,0,7.9,1,63338,0,0,1
Alaska International Grocery/ Alaska Halal Grocery,61.1750425,-149.8914531,"401 W International Airport Rd #23, Anchorage, AK 99518, United States",ChIJKaGJTZKXyFYRvqAoJMj80wI,/biz/alaska-international-grocery-alaska-halal-grocery-anchorage?osq=Restaurants,0.119407395191816,5,99503,121,6167,47.4,0,1429,11,1,1206,9.3,1,1859,14.3,1,155,1.2,0,990,36.1,0,7.9,1,63338,0,0,1
Eldric's Pinoy Cooking,61.1738962,-149.8914096,"401 W International Airport Rd B, Anchorage, AK 99518, United States",ChIJxxV_U5KXyFYRiBL1pjidJf8,/biz/eldrics-pinoy-cooking-anchorage?osq=Restaurants,0.125177312845225,3.3,99503,121,6167,47.4,0,1429,11,1,1206,9.3,1,1859,14.3,1,155,1.2,0,990,36.1,0,7.9,1,63338,0,0,1
Tofu House,61.1987476,-149.8912635,"515 W Fireweed Ln, Anchorage, AK 99503, United States",ChIJQX-U3s-XyFYRBo1-sdhshTA,/biz/tofu-house-anchorage?osq=Restaurants,0.139537035121963,3.8,99503,121,6167,47.4,0,1429,11,1,1206,9.3,1,1859,14.3,1,155,1.2,0,990,36.1,0,7.9,1,63338,0,0,0
Wonjo Korean Cuisine,61.1987476,-149.8912635,"515 W Fireweed Ln, Anchorage, AK 99503, United States",ChIJQX-U3s-XyFYRBo1-sdhshTA,/biz/wonjo-korean-cuisine-anchorage-3?osq=Restaurants,0.138304958576463,4.5,99507,46,20110,55.2,0,1159,3.2,0,3042,8.4,1,6913,19,1,623,1.7,0,2127,30.2,0,4.7,1,88485,0,1,0
Anchorage Cider House -Fat Ptarmigan,61.2177071,-149.8911649,"441 W 5th Ave STE 100, Anchorage, AK 99501, United States",ChIJr6ev4CmWyFYRqFSe3dfozv4,/biz/anchorage-cider-house-fat-ptarmigan-anchorage-3?osq=Restaurants,0.0084379111508214,3.5,99501,77,9223,57.8,0,1150,7.2,1,2000,12.5,1,1059,6.6,0,520,3.3,1,1160,34.8,0,7.2,1,61509,0,1,1
Tequila 61,61.2188133,-149.8909986,"445 W 4th Ave, Anchorage, AK 99501, United States",ChIJD6wGfIe9yFYR9TUkfeir8es,/biz/tequila-61-anchorage-2?osq=Restaurants,0.16386989675487,3.9,99501,77,9223,57.8,0,1150,7.2,1,2000,12.5,1,1059,6.6,0,520,3.3,1,1160,34.8,0,7.2,1,61509,0,1,1
Whisky & Ramen,61.2182843,-149.8909192,"436 W 4th Ave, Anchorage, AK 99501, United States",ChIJe-Lt7JKXyFYRN0dhcIkmibs,/biz/whisky-and-ramen-anchorage?osq=Restaurants,0.39591384980266,4.5,99501,77,9223,57.8,0,1150,7.2,1,2000,12.5,1,1059,6.6,0,520,3.3,1,1160,34.8,0,7.2,1,61509,0,1,1
Hula Hands Restaurant,61.1988864,-149.8906113,"501 W Fireweed Ln, Anchorage, AK 99503, United States",ChIJCYb22M-XyFYRrYq_a14XCcw,/biz/hula-hands-restaurant-anchorage-2?osq=Restaurants,0.131463488348801,4.1,99508,30,15722,41.3,0,3106,8.2,1,5326,14,1,5151,13.5,1,2930,7.7,1,1605,25.3,0,6.5,1,65430,0,1,0
Ginger,61.2176984,-149.8904992,"425 W 5th Ave, Anchorage, AK 99501, United States",ChIJyxXi3CmWyFYR0QSX5WfoVhs,/biz/ginger-anchorage?osq=Restaurants,0.180058386849073,4,99501,77,9223,57.8,0,1150,7.2,1,2000,12.5,1,1059,6.6,0,520,3.3,1,1160,34.8,0,7.2,1,61509,0,1,1
Zorba's Gyros,61.1958569,-149.8902544,"2700 Blueberry Rd, Anchorage, AK 99503, United States",ChIJI7cNe8WXyFYRuJw8-CPA5f4,/biz/zorbas-gyros-anchorage?osq=Restaurants,0.116807803993724,4.4,99518,22,6234,58.1,0,259,2.4,0,553,5.2,0,1298,12.1,1,192,1.8,0,587,21.2,0,3,0,84045,0,1,1
Club Paris,61.2176987,-149.890215,"417 W 5th Ave, Anchorage, AK 99501, United States",ChIJocFKwymWyFYRFUAUTcZY81s,/biz/club-paris-anchorage?osq=Restaurants,0.164475509299094,4.1,99501,77,9223,57.8,0,1150,7.2,1,2000,12.5,1,1059,6.6,0,520,3.3,1,1160,34.8,0,7.2,1,61509,0,1,1
The K Food,61.1946022,-149.8898772,"343 W Benson Blvd #3, Anchorage, AK 99503, United States",ChIJrbUQycOXyFYR1V6aHT_T35E,/biz/the-k-food-anchorage?osq=Restaurants,0.0726534554833523,5,99503,121,6167,47.4,0,1429,11,1,1206,9.3,1,1859,14.3,1,155,1.2,0,990,36.1,0,7.9,1,63338,0,0,1
Originale,61.2181972,-149.8895873,"400 D St, Anchorage, AK 99501, United States",ChIJ2cmy0SmWyFYRAm5hzjxH4Bo,/biz/originale-anchorage?osq=Restaurants,0.13675083206669,4.5,99501,77,9223,57.8,0,1150,7.2,1,2000,12.5,1,1059,6.6,0,520,3.3,1,1160,34.8,0,7.2,1,61509,0,1,1
myThai Downtown Restaurant,61.2187273,-149.8892131,"333 W 4th Ave #228, Anchorage, AK 99501, United States",ChIJ5buGMiiWyFYRhJfWk3ClNPU,/biz/mythai-downtown-restaurant-anchorage?osq=Restaurants,0.139716469347517,4,99518,22,6234,58.1,0,259,2.4,0,553,5.2,0,1298,12.1,1,192,1.8,0,587,21.2,0,3,0,84045,0,1,1
Tent City Taphouse,61.216701,-149.8891345,"343 W 6th Ave, Anchorage, AK 99501, United States",ChIJ3ZAgwIuXyFYR-ujjqc9zlbU,/biz/tent-city-taphouse-anchorage?osq=Restaurants,0.278629738373142,4.3,99501,77,9223,57.8,0,1150,7.2,1,2000,12.5,1,1059,6.6,0,520,3.3,1,1160,34.8,0,7.2,1,61509,0,1,1
Matanuska Brewing Company,61.1947489,-149.8884943,"2830 C St, Anchorage, AK 99503, United States",ChIJlyYOyNSXyFYRUWf8xf_V2Wg,/biz/matanuska-brewing-company-eagle-river?osq=Restaurants,0.150364778153666,3.1,99501,77,9223,57.8,0,1150,7.2,1,2000,12.5,1,1059,6.6,0,520,3.3,1,1160,34.8,0,7.2,1,61509,0,1,1
Matanuska Brewing - Midtown Anchorage,61.1947489,-149.8884943,"2830 C St, Anchorage, AK 99503, United States",ChIJlyYOyNSXyFYRUWf8xf_V2Wg,/biz/matanuska-brewing-midtown-anchorage-anchorage?osq=Restaurants,0.147173517241239,3.4,99507,46,20110,55.2,0,1159,3.2,0,3042,8.4,1,6913,19,1,623,1.7,0,2127,30.2,0,4.7,1,88485,0,1,1
Biscuitclub,61.219076,-149.8884748,"333 W 4th Ave, Anchorage, AK 99501, United States",ChIJfTrjFpaXyFYRlJtC6a6mUrY,/biz/biscuitclub-anchorage?osq=Restaurants,0.221226436290591,4.7,99501,77,9223,57.8,0,1150,7.2,1,2000,12.5,1,1059,6.6,0,520,3.3,1,1160,34.8,0,7.2,1,61509,0,1,1
Wxyz Lounge,61.1876399,-149.88833,"310 W 36th Ave, Anchorage, AK 99503, United States",ChIJJbhdCsiXyFYRfT_06njCppc,/biz/wxyz-lounge-anchorage?osq=Restaurants,0.202273510543522,4,99503,121,6167,47.4,0,1429,11,1,1206,9.3,1,1859,14.3,1,155,1.2,0,990,36.1,0,7.9,1,63338,0,0,0
Alaska Crepery,61.2177557,-149.8881686,"319 W 5th Ave, Anchorage, AK 99501, United States",ChIJC6dwVAyXyFYR0ZZMmzzULww,/biz/alaska-crepery-anchorage-2?osq=Restaurants,0.16175441753104,4.5,99507,46,20110,55.2,0,1159,3.2,0,3042,8.4,1,6913,19,1,623,1.7,0,2127,30.2,0,4.7,1,88485,0,1,1
Applebee's Grill + Bar,61.1813359,-149.8881341,"4331 Credit Union Dr, Anchorage, AK 99503, United States",ChIJB4MSNpWXyFYRclXkdYBBXko,/biz/applebees-grill-bar-anchorage?osq=Restaurants,0.117380430620244,2.2,99507,46,20110,55.2,0,1159,3.2,0,3042,8.4,1,6913,19,1,623,1.7,0,2127,30.2,0,4.7,1,88485,0,1,0
Sullivan's Steakhouse,61.21737,-149.8878299,"320 W 5th Ave, Anchorage, AK 99501, United States",ChIJH0jnvSmWyFYRdQxPRZNOK8s,/biz/sullivans-steakhouse-anchorage-2?osq=Restaurants,0.12551892143929,3.4,99507,46,20110,55.2,0,1159,3.2,0,3042,8.4,1,6913,19,1,623,1.7,0,2127,30.2,0,4.7,1,88485,0,1,1
Leroy's Family Restaurant,61.197876,-149.8872986,"2420 C St, Anchorage, AK 99503, United States",ChIJY-fSr8-XyFYRa2VXIqNbpTo,/biz/leroys-family-restaurant-anchorage?osq=Restaurants,0.126761943199834,3.4,99503,121,6167,47.4,0,1429,11,1,1206,9.3,1,1859,14.3,1,155,1.2,0,990,36.1,0,7.9,1,63338,0,0,0
Midnight Sun Cafe,61.21768,-149.8869764,"245 W 5th Ave STE 106, Anchorage, AK 99501, United States",ChIJb6tTqSmWyFYR0ysKCl4Gu4k,/biz/midnight-sun-cafe-anchorage?osq=Restaurants,0.13743024416581,4.2,99515,80,15252,68.6,1,471,2.1,0,1002,4.5,0,1635,7.4,0,711,3.2,1,1098,39,1,4,1,106755,1,0,1
Tasty Traveler,61.21768,-149.8869764,"245 W 5th Ave STE 106, Anchorage, AK 99501, United States",ChIJb6tTqSmWyFYR0ysKCl4Gu4k,/biz/tasty-traveler-anchorage?osq=Restaurants,0.0305639225902962,5,99515,80,15252,68.6,1,471,2.1,0,1002,4.5,0,1635,7.4,0,711,3.2,1,1098,39,1,4,1,106755,1,0,1
Kriner's Diner,61.1991861,-149.8868067,"2409 C St, Anchorage, AK 99503, United States",ChIJi7vxS86XyFYRDY_lYuVnTy4,/biz/kriners-diner-anchorage?osq=Restaurants,0.136832599911319,3.9,99515,80,15252,68.6,1,471,2.1,0,1002,4.5,0,1635,7.4,0,711,3.2,1,1098,39,1,4,1,106755,1,0,0
Bridge Seafood - Temp. CLOSED,61.2233782,-149.8857296,"221 W Ship Creek Ave, Anchorage, AK 99501, United States",ChIJbVcqGYi9yFYRUTkJd4n7R3E,/biz/bridge-seafood-anchorage?osq=Restaurants,0.16726089608159,3.8,99501,77,9223,57.8,0,1150,7.2,1,2000,12.5,1,1059,6.6,0,520,3.3,1,1160,34.8,0,7.2,1,61509,0,1,0
Charlie's Bakery,61.1960009,-149.885609,"2729 C St, Anchorage, AK 99503, United States",ChIJZ62iY8-XyFYRypaZA-H87rI,/biz/charlies-bakery-anchorage?osq=Restaurants,0.164988031324196,4.3,99503,121,6167,47.4,0,1429,11,1,1206,9.3,1,1859,14.3,1,155,1.2,0,990,36.1,0,7.9,1,63338,0,0,0
Espresso Expressions,61.1861647,-149.8853598,"212 38th Pl, Anchorage, AK 99503, United States",ChIJEbeVjMCXyFYR3NaQk7i_Fyg,/biz/espresso-expressions-anchorage-3?osq=Restaurants,0.0296778754094251,3.4,99501,77,9223,57.8,0,1150,7.2,1,2000,12.5,1,1059,6.6,0,520,3.3,1,1160,34.8,0,7.2,1,61509,0,1,0
Golden Corral Buffet & Grill,61.1787446,-149.8852215,"4520 Union Square Dr, Anchorage, AK 99503, United States",ChIJM7BNVZSXyFYRxf9B9mfGoTw,/biz/golden-corral-buffet-and-grill-anchorage?osq=Restaurants,0.0600571051920267,2.9,99577,32,22970,84,1,425,1.6,0,638,2.3,0,588,2.2,0,175,0.6,0,1801,39,1,3.5,1,111388,1,1,0
Bear Paw Bar & Grill,61.1802451,-149.8852071,"190 W Tudor Rd, Anchorage, AK 99503, United States",ChIJ_8gNNrWXyFYRyENIHTSapfk,/biz/bear-paw-bar-and-grill-anchorage?osq=Restaurants,0.238801439912492,3.4,99503,121,6167,47.4,0,1429,11,1,1206,9.3,1,1859,14.3,1,155,1.2,0,990,36.1,0,7.9,1,63338,0,0,0
Firehouse Subs,61.12707,-149.8852,"345 W 104th Ave #100, Anchorage, AK 99515, United States",ChIJQ4ReeCCZyFYRfqvIYCQ3LWc,/biz/firehouse-subs-anchorage-2?osq=Restaurants,0.0084775626368808,3.7,99501,77,9223,57.8,0,1150,7.2,1,2000,12.5,1,1059,6.6,0,520,3.3,1,1160,34.8,0,7.2,1,61509,0,1,0
juno,61.1742093,-149.8851912,"109 W International Airport Rd, Anchorage, AK 99518, United States",ChIJHweXmleXyFYRQW4ErQzvlNU,/biz/juno-anchorage?osq=Restaurants,0.138833512576965,3,99503,121,6167,47.4,0,1429,11,1,1206,9.3,1,1859,14.3,1,155,1.2,0,990,36.1,0,7.9,1,63338,0,0,0
Smashed,61.1279875,-149.8850755,"317 W 104th Ave, Anchorage, AK 99515, United States",ChIJ91kVe7eZyFYR40E_97OLTwE,/biz/smashed-anchorage?osq=Restaurants,0.190938774912792,4.2,99507,46,20110,55.2,0,1159,3.2,0,3042,8.4,1,6913,19,1,623,1.7,0,2127,30.2,0,4.7,1,88485,0,1,0
The Office Cafe,61.1872725,-149.885014,"3601 C St, Anchorage, AK 99503, United States",ChIJA1fMxcCXyFYR-COAKN-BTbg,/biz/the-office-cafe-anchorage?osq=Restaurants,0.124797513336071,4,99507,46,20110,55.2,0,1159,3.2,0,3042,8.4,1,6913,19,1,623,1.7,0,2127,30.2,0,4.7,1,88485,0,1,0
Pho Lena Downtown,61.2176827,-149.884805,"137 W 5th Ave, Anchorage, AK 99501, United States",ChIJQRnV_yiWyFYRFD6rWoQpLBc,/biz/pho-lena-downtown-anchorage-3?osq=Restaurants,0.145479390693222,3.9,99501,77,9223,57.8,0,1150,7.2,1,2000,12.5,1,1059,6.6,0,520,3.3,1,1160,34.8,0,7.2,1,61509,0,1,1
Outback Steakhouse,61.1901276,-149.8839148,"101 W 34th Ave, Anchorage, AK 99503, United States",ChIJiUTT38aXyFYRGrPYKu8z6kU,/biz/outback-steakhouse-anchorage?osq=Restaurants,0.0729056787438913,2.5,99503,121,6167,47.4,0,1429,11,1,1206,9.3,1,1859,14.3,1,155,1.2,0,990,36.1,0,7.9,1,63338,0,0,0
Burrito King,61.1863715,-149.8839018,"111 38th Pl, Anchorage, AK 99503, United States",ChIJr_gPmsCXyFYRiXZEHTEB4Lo,/biz/burrito-king-anchorage-5?osq=Restaurants,0.0680316447326473,3.3,99503,121,6167,47.4,0,1429,11,1,1206,9.3,1,1859,14.3,1,155,1.2,0,990,36.1,0,7.9,1,63338,0,0,0
The White Spot Cafe,61.218678,-149.8838166,"109 W 4th Ave, Anchorage, AK 99501, United States",ChIJD_Px9SiWyFYRva57oBIXQWk,/biz/the-white-spot-cafe-anchorage?osq=Restaurants,0.115756790948462,4.1,99503,121,6167,47.4,0,1429,11,1,1206,9.3,1,1859,14.3,1,155,1.2,0,990,36.1,0,7.9,1,63338,0,0,1
The Hungry Deckhand,61.118279,-149.883667,"Anchorage, AK 99515",-,/biz/the-hungry-deckhand-anchorage?osq=Restaurants,0.149015532312656,4.6,99515,80,15252,68.6,1,471,2.1,0,1002,4.5,0,1635,7.4,0,711,3.2,1,1098,39,1,4,1,106755,1,0,0
AK Alchemist,61.2187725,-149.8828076,"103 E 4th Ave, Anchorage, AK 99501, United States",ChIJt_B88yiWyFYRZQB7I68Jokk,/biz/ak-alchemist-anchorage?osq=Restaurants,0.16482374857803,3.8,99501,77,9223,57.8,0,1150,7.2,1,2000,12.5,1,1059,6.6,0,520,3.3,1,1160,34.8,0,7.2,1,61509,0,1,1
El Jefe Taco Joint,61.173957,-149.8826951,"101 E International Airport Rd STE 101, Anchorage, AK 99518, United States",ChIJtQd0J_mXyFYR8RjnIxqj2Xg,/biz/el-jefe-taco-joint-anchorage?osq=Restaurants,0.2072004109076,4.4,99518,22,6234,58.1,0,259,2.4,0,553,5.2,0,1298,12.1,1,192,1.8,0,587,21.2,0,3,0,84045,0,1,0
Ramen House,61.1985863,-149.881672,"149 E Fireweed Ln, Anchorage, AK 99503, United States",ChIJef1-ws6XyFYRJnVf7t9mv90,/biz/ramen-house-anchorage?osq=Restaurants,0.213254556540096,4.3,99503,121,6167,47.4,0,1429,11,1,1206,9.3,1,1859,14.3,1,155,1.2,0,990,36.1,0,7.9,1,63338,0,0,0
Familia,61.1385403,-149.8816419,"148 W 91st Ave, Anchorage, AK 99515, United States",ChIJhxSsky6ZyFYRJ_tYPEuc250,/biz/familia-anchorage-2?osq=Restaurants,0.174170766721546,4.4,99515,80,15252,68.6,1,471,2.1,0,1002,4.5,0,1635,7.4,0,711,3.2,1,1098,39,1,4,1,106755,1,0,0
Pho Dimond,61.1457199,-149.8815654,"Vietnamese, 135 W Dimond Blvd #106, Anchorage, AK 99515, United States",ChIJkYax39KZyFYRWrqQ5_teJls,/biz/pho-dimond-anchorage?osq=Restaurants,0.115672391982878,4.1,99503,121,6167,47.4,0,1429,11,1,1206,9.3,1,1859,14.3,1,155,1.2,0,990,36.1,0,7.9,1,63338,0,0,0
Saint Coyote,61.1461332,-149.8814296,"135 W Dimond Blvd #111, Anchorage, AK 99515, United States",ChIJG5Ti6_iZyFYR-BOeAfCw9AA,/biz/saint-coyote-anchorage-3?osq=Restaurants,0.153319848667855,3.7,99503,121,6167,47.4,0,1429,11,1,1206,9.3,1,1859,14.3,1,155,1.2,0,990,36.1,0,7.9,1,63338,0,0,0
Palmeira Tropical Fusion,61.2188142,-149.8810413,"323 Barrow St, Anchorage, AK 99501, United States",ChIJR0JbBTqXyFYRnc5f46ijUQI,/biz/palmeira-tropical-fusion-anchorage?osq=Restaurants,0.198701700558982,4.6,99501,77,9223,57.8,0,1150,7.2,1,2000,12.5,1,1059,6.6,0,520,3.3,1,1160,34.8,0,7.2,1,61509,0,1,1
Mammoth Cheesesteak,61.1667502,-149.8808552,"230 E Potter Dr, Anchorage, AK 99518, United States",ChIJrXv8tdKXyFYRDiB_feh7Klc,/biz/mammoth-cheesesteak-anchorage?osq=Restaurants,0.153554850637703,4.8,99503,121,6167,47.4,0,1429,11,1,1206,9.3,1,1859,14.3,1,155,1.2,0,990,36.1,0,7.9,1,63338,0,0,0
Great Room,61.1609661,-149.8808287,"6591 A St, Anchorage, AK 99518, United States",ChIJB9wRiYaXyFYRDwxtL17AUyc,/biz/great-room-anchorage?osq=Restaurants,0.143680193040596,4.5,99501,77,9223,57.8,0,1150,7.2,1,2000,12.5,1,1059,6.6,0,520,3.3,1,1160,34.8,0,7.2,1,61509,0,1,0
Papaya Tree,61.1922645,-149.8802643,"3101 A St, Anchorage, AK 99503, United States",ChIJOe6XNsaXyFYRC3S8q6sEmUE,/biz/papaya-tree-anchorage-2?osq=Restaurants,0.12408403594587,4,99503,121,6167,47.4,0,1429,11,1,1206,9.3,1,1859,14.3,1,155,1.2,0,990,36.1,0,7.9,1,63338,0,0,0
Serrano's Mexican Grill,61.1954676,-149.8801407,"201 E Northern Lights Blvd, Anchorage, AK 99503, United States",ChIJH0A8uciXyFYRQvUedUNWEEU,/biz/serranos-mexican-grill-anchorage-3?osq=Restaurants,0.124588065914246,3.8,99502,17,15845,62.8,1,588,2.3,0,2954,11.7,1,2149,8.5,0,516,2,0,1161,25.2,0,5.4,1,94355,1,1,0
Serrano's Mexican Grill,61.1954676,-149.8801407,"201 E Northern Lights Blvd, Anchorage, AK 99503, United States",ChIJH0A8uciXyFYRQvUedUNWEEU,/biz/serranos-mexican-grill-anchorage?osq=Restaurants,0.141744735975226,3.9,99577,32,22970,84,1,425,1.6,0,638,2.3,0,588,2.2,0,175,0.6,0,1801,39,1,3.5,1,111388,1,1,0
Black Cup,61.1939497,-149.8783513,"341 E Benson Blvd, Anchorage, AK 99503, United States",ChIJDZLbhciXyFYRH4z_leQ0-wU,/biz/black-cup-anchorage-2?osq=Restaurants,0.078036222152327,4.3,99501,77,9223,57.8,0,1150,7.2,1,2000,12.5,1,1059,6.6,0,520,3.3,1,1160,34.8,0,7.2,1,61509,0,1,0
61Sliders,61.14914,-149.87809,"7920 King St, Anchorage, AK 99518",-,/biz/61sliders-anchorage?osq=Restaurants,0.124477856308066,3.6,99507,46,20110,55.2,0,1159,3.2,0,3042,8.4,1,6913,19,1,623,1.7,0,2127,30.2,0,4.7,1,88485,0,1,0
Mandala Restaurant Anchorage,61.1452506,-149.8777072,"209 E Dimond Blvd, Anchorage, AK 99515, United States",ChIJo5LMTx-ZyFYR8nFdc445OLw,/biz/mandala-restaurant-anchorage-anchorage-2?osq=Restaurants,0.162044137430868,4.6,99515,80,15252,68.6,1,471,2.1,0,1002,4.5,0,1635,7.4,0,711,3.2,1,1098,39,1,4,1,106755,1,0,0
Royal Thai,61.1450216,-149.877596,"219 E Dimond Blvd, Anchorage, AK 99515, United States",ChIJo8tardOZyFYRxcEVCLuXau0,/biz/royal-thai-anchorage-2?osq=Restaurants,0.136792057585658,4.6,99501,77,9223,57.8,0,1150,7.2,1,2000,12.5,1,1059,6.6,0,520,3.3,1,1160,34.8,0,7.2,1,61509,0,1,0
Jade Steak & Dinner,61.2169056,-149.876911,"401 E 6th Ave STE 101, Anchorage, AK 99501, United States",ChIJYZeNFS-WyFYRzlxBXpEzW28,/biz/jade-steak-and-dinner-anchorage?osq=Restaurants,0.161140762850663,1,99503,121,6167,47.4,0,1429,11,1,1206,9.3,1,1859,14.3,1,155,1.2,0,990,36.1,0,7.9,1,63338,0,0,0
Korean Garden,61.1441461,-149.8767621,"300 E Dimond Blvd, Anchorage, AK 99515, United States",ChIJM77XNtKZyFYRLEv0OzfhCgQ,/biz/korean-garden-anchorage?osq=Restaurants,0.131698302848592,3.8,99503,121,6167,47.4,0,1429,11,1,1206,9.3,1,1859,14.3,1,155,1.2,0,990,36.1,0,7.9,1,63338,0,0,0
Ollin Tea & Cafe,61.1438325,-149.87608,"300 E Dimond Blvd #15, Anchorage, AK 99515, United States",ChIJQ3-XMQiXyFYRGgKdXxQK4sc,/biz/ollin-tea-and-cafe-anchorage?osq=Restaurants,0.0253600453902524,4,99508,30,15722,41.3,0,3106,8.2,1,5326,14,1,5151,13.5,1,2930,7.7,1,1605,25.3,0,6.5,1,65430,0,1,0
IHOP,61.1815746,-149.8750737,"501 E Tudor Rd, Anchorage, AK 99503, United States",ChIJK-LO372XyFYRPOmgJSu-1MA,/biz/ihop-anchorage-4?osq=Restaurants,0.0381285370960283,2.4,99515,80,15252,68.6,1,471,2.1,0,1002,4.5,0,1635,7.4,0,711,3.2,1,1098,39,1,4,1,106755,1,0,0
Silk,61.1930586,-149.8749186,"500 E Benson Blvd Suite 114, Anchorage, AK 99503, United States",ChIJXdmxDsiXyFYRlm04VUjC4KA,/biz/silk-anchorage-3?osq=Restaurants,0.109700941580807,3.7,99515,80,15252,68.6,1,471,2.1,0,1002,4.5,0,1635,7.4,0,711,3.2,1,1098,39,1,4,1,106755,1,0,1
Indigo Tea Lounge,61.192596,-149.8743823,"530 E Benson Blvd #8, Anchorage, AK 99503, United States",ChIJ4cKHzyiWyFYRFknrT2Yllfs,/biz/indigo-tea-lounge-anchorage?osq=Restaurants,0.0466700987738977,4.3,99502,17,15845,62.8,1,588,2.3,0,2954,11.7,1,2149,8.5,0,516,2,0,1161,25.2,0,5.4,1,94355,1,1,1
Cafe Amsterdam,61.1930568,-149.8743743,"530 E Benson Blvd #3, Anchorage, AK 99503, United States",ChIJY6AnHMiXyFYRbOnE83yqXDQ,/biz/cafe-amsterdam-anchorage?osq=Restaurants,0.0492635257610953,3.1,99518,22,6234,58.1,0,259,2.4,0,553,5.2,0,1298,12.1,1,192,1.8,0,587,21.2,0,3,0,84045,0,1,1
China Town Restaurant,61.2310128,-149.8739376,"836 E Loop Rd, Anchorage, AK 99501, United States",ChIJycJpq4q9yFYR-t1ozZupnR4,/biz/china-town-restaurant-anchorage?osq=Restaurants,0.0127277268611088,4,99503,121,6167,47.4,0,1429,11,1,1206,9.3,1,1859,14.3,1,155,1.2,0,990,36.1,0,7.9,1,63338,0,0,0
Saverio's Pizzeria,61.192562,-149.873873,"530 E Benson Blvd, Anchorage, AK 99503, United States",ChIJjXvzAMiXyFYR3o6gJkT3ORE,/biz/saverios-pizzeria-anchorage-2?osq=Restaurants,0.139487411891088,4.6,99501,77,9223,57.8,0,1150,7.2,1,2000,12.5,1,1059,6.6,0,520,3.3,1,1160,34.8,0,7.2,1,61509,0,1,1
Taco King,61.2310983,-149.8736453,"848 E Loop Rd, Anchorage, AK 99501, United States",ChIJqa3BVPW9yFYRU0lpLOAULeI,/biz/taco-king-anchorage-2?osq=Restaurants,0.114544428393994,3.9,99501,77,9223,57.8,0,1150,7.2,1,2000,12.5,1,1059,6.6,0,520,3.3,1,1160,34.8,0,7.2,1,61509,0,1,0
Taco King,61.2310983,-149.8736453,"848 E Loop Rd, Anchorage, AK 99501, United States",ChIJqa3BVPW9yFYRU0lpLOAULeI,/biz/taco-king-anchorage?osq=Restaurants,0.108117504290047,3.5,99503,121,6167,47.4,0,1429,11,1,1206,9.3,1,1859,14.3,1,155,1.2,0,990,36.1,0,7.9,1,63338,0,0,0
Pho' Vietnam,61.2306862,-149.8736317,"809 E Loop Rd, Anchorage, AK 99501, United States",ChIJFSr2ByCWyFYRBOBfFpd00KM,/biz/pho-vietnam-anchorage?osq=Restaurants,0.081857169127342,3.7,99503,121,6167,47.4,0,1429,11,1,1206,9.3,1,1859,14.3,1,155,1.2,0,990,36.1,0,7.9,1,63338,0,0,0
Great Harvest Bread - Anchorage,61.1928367,-149.8729194,"570 E Benson Blvd, Anchorage, AK 99503, United States",ChIJ1zH0_beXyFYRJFYa8Do62f8,/biz/great-harvest-bread-anchorage-anchorage?osq=Restaurants,0.149712149035237,4.5,99501,77,9223,57.8,0,1150,7.2,1,2000,12.5,1,1059,6.6,0,520,3.3,1,1160,34.8,0,7.2,1,61509,0,1,1
Fresh Bowl Kitchen,61.1954967,-149.8728649,"545 E Northern Lights Blvd # A, Anchorage, AK 99503, United States",ChIJ11eEZHmXyFYRBIjLIs85uy4,/biz/fresh-bowl-kitchen-anchorage?osq=Restaurants,0.139985062339731,4.4,99501,77,9223,57.8,0,1150,7.2,1,2000,12.5,1,1059,6.6,0,520,3.3,1,1160,34.8,0,7.2,1,61509,0,1,1
Twin Dragon Mongolian Bar-B-Q,61.2076063,-149.8725226,"612 E 15th Ave, Anchorage, AK 99501, United States",ChIJEbTw_TKWyFYRgI6sLRzQS_M,/biz/twin-dragon-mongolian-bar-b-q-anchorage?osq=Restaurants,0.0690041476813517,3.7,99503,121,6167,47.4,0,1429,11,1,1206,9.3,1,1859,14.3,1,155,1.2,0,990,36.1,0,7.9,1,63338,0,0,0
BurgerFi,61.1942601,-149.8722758,"600 E Northern Lights Blvd, Anchorage, AK 99503, United States",ChIJzQcOFsiXyFYRaUpvMcE3H90,/biz/burgerfi-anchorage-2?osq=Restaurants,0.021209786257921,3.2,99503,121,6167,47.4,0,1429,11,1,1206,9.3,1,1859,14.3,1,155,1.2,0,990,36.1,0,7.9,1,63338,0,0,1
Pho' Vietnam #8,61.1976545,-149.8720515,"602 E Fireweed Ln, Anchorage, AK 99503, United States",ChIJU6xLm8mXyFYRl1Tdgl1IjBw,/biz/pho-vietnam-8-anchorage?osq=Restaurants,0.122270160512238,4.2,99515,80,15252,68.6,1,471,2.1,0,1002,4.5,0,1635,7.4,0,711,3.2,1,1098,39,1,4,1,106755,1,0,0
Pita Pit,61.1878299,-149.8717295,"600 E 36th Ave Unit 200, Anchorage, AK 99503, United States",ChIJfZCnGrmXyFYRD1fylTF8TvU,/biz/pita-pit-anchorage?osq=Restaurants,0.1137691077343,4.3,99503,121,6167,47.4,0,1429,11,1,1206,9.3,1,1859,14.3,1,155,1.2,0,990,36.1,0,7.9,1,63338,0,0,1
Cecy's Pizza,61.210939,-149.871535,"1172 Gambell St, Anchorage, AK 99501, United States",ChIJrbGt1tmXyFYRKGH3ldybKV0,/biz/cecys-pizza-anchorage?osq=Restaurants,0.0042125362705015,2.9,99503,121,6167,47.4,0,1429,11,1,1206,9.3,1,1859,14.3,1,155,1.2,0,990,36.1,0,7.9,1,63338,0,0,0
Dami,61.2170999,-149.8715223,"642 E 5th Ave, Anchorage, AK 99501, United States",ChIJQf0lhy-WyFYRyA88wsFFV9w,/biz/dami-anchorage?osq=Restaurants,0.13374935669088,3.7,99501,77,9223,57.8,0,1150,7.2,1,2000,12.5,1,1059,6.6,0,520,3.3,1,1160,34.8,0,7.2,1,61509,0,1,0
Territory,61.1925811,-149.8712487,"600 E Benson Blvd, Anchorage, AK 99503, United States",ChIJWYma6LeXyFYRCaj0xpBqfrU,/biz/territory-anchorage?osq=Restaurants,0.155985237432331,3.8,99501,77,9223,57.8,0,1150,7.2,1,2000,12.5,1,1059,6.6,0,520,3.3,1,1160,34.8,0,7.2,1,61509,0,1,1
Sorrento's Restaurant,61.1975987,-149.8705824,"610 E Fireweed Ln, Anchorage, AK 99503, United States",ChIJeQn9hcmXyFYRaiu1ZpMm4nI,/biz/sorrentos-restaurant-anchorage?osq=Restaurants,0.144102204708238,4.2,99517,17,10461,66.2,1,581,3.7,0,1160,7.3,1,1605,10.2,1,259,1.6,0,1255,47.1,1,6.4,1,82619,0,1,0
Altura Bistro,61.1818543,-149.8695497,"4240 Old Seward Hwy, Anchorage, AK 99503, United States",ChIJHW9a_7yXyFYR_QfYVj_6qhQ,/biz/altura-bistro-anchorage-2?osq=Restaurants,0.253264948511401,4.6,99503,121,6167,47.4,0,1429,11,1,1206,9.3,1,1859,14.3,1,155,1.2,0,990,36.1,0,7.9,1,63338,0,0,0
Nilda's Party Creations,61.1813822,-149.8694207,"4240 Old Seward Hwy #21, Anchorage, AK 99503, United States",ChIJt7TnWbyXyFYRf6B4_k402QQ,/biz/nildas-party-creations-midtown?osq=Restaurants,0.080499630053314,4.5,99504,62,21807,52.2,0,4213,10.1,1,2973,7.1,0,4912,11.8,1,1703,4.1,1,1965,27.5,0,5.4,1,75956,0,0,0
Seoul Casa,61.14568,-149.8692499,"601 E Dimond Blvd #6th, Anchorage, AK 99515, United States",ChIJJcOb6X6ZyFYRwx07-x1oDas,/biz/seoul-casa-anchorage?osq=Restaurants,0.188405725745764,4.5,99515,80,15252,68.6,1,471,2.1,0,1002,4.5,0,1635,7.4,0,711,3.2,1,1098,39,1,4,1,106755,1,0,1
Kinley's Restaurant & Bar,61.1910245,-149.8691368,"3230 Seward Hwy, Anchorage, AK 99503, United States",ChIJwVq21LmXyFYRWzn7MbUtDhY,/biz/kinleys-restaurant-and-bar-anchorage?osq=Restaurants,0.180616735566914,4.1,99503,121,6167,47.4,0,1429,11,1,1206,9.3,1,1859,14.3,1,155,1.2,0,990,36.1,0,7.9,1,63338,0,0,1
Dave & Buster's,61.1432124,-149.8691315,"800 E Dimond Blvd #240, Anchorage, AK 99515, United States",ChIJh_2MCNGZyFYRjpAlb_YhnGw,/biz/dave-and-busters-anchorage-3?osq=Restaurants,0.0382945183702817,2.4,99503,121,6167,47.4,0,1429,11,1,1206,9.3,1,1859,14.3,1,155,1.2,0,990,36.1,0,7.9,1,63338,0,0,0
Xalos Burrito Express,61.1883177,-149.8688793,"751 E 36th Ave, Anchorage, AK 99503, United States",ChIJ-6WIxrOXyFYRcl2VR9D8nmc,/biz/xalos-burrito-express-anchorage-2?osq=Restaurants,0.142736173616849,4.4,99503,121,6167,47.4,0,1429,11,1,1206,9.3,1,1859,14.3,1,155,1.2,0,990,36.1,0,7.9,1,63338,0,0,1
Arctic Roadrunner,61.1727338,-149.8688704,"5300 Old Seward Hwy, Anchorage, AK 99518, United States",ChIJBS8xhZmXyFYRmps_Xw7yx8Q,/biz/arctic-roadrunner-anchorage-2?osq=Restaurants,0.14983521792096,3.9,99503,121,6167,47.4,0,1429,11,1,1206,9.3,1,1859,14.3,1,155,1.2,0,990,36.1,0,7.9,1,63338,0,0,0
El Dorado,61.1812022,-149.8688415,"4300 Old Seward Hwy Suite GD 01, Anchorage, AK 99503, United States",ChIJvcHo_oeWyFYRn1-E0yr3MeI,/biz/el-dorado-anchorage?osq=Restaurants,0.198085722535992,4.3,99503,121,6167,47.4,0,1429,11,1,1206,9.3,1,1859,14.3,1,155,1.2,0,990,36.1,0,7.9,1,63338,0,0,0
Moose's Tooth,61.1904987,-149.8687435,"3300 Old Seward Hwy, Anchorage, AK 99503, United States",ChIJ3wBgzrmXyFYRbIyKWCfhB9c,/biz/mooses-tooth-anchorage?osq=Restaurants,0.487931617660117,4.4,99503,121,6167,47.4,0,1429,11,1,1206,9.3,1,1859,14.3,1,155,1.2,0,990,36.1,0,7.9,1,63338,0,0,1
South Restaurant + Coffeehouse,61.1199527,-149.8678209,"11124 Old Seward Hwy, Anchorage, AK 99515, United States",ChIJQ9HO7JWZyFYRgaZzV-u0ARM,/biz/south-restaurant-coffeehouse-anchorage?osq=Restaurants,0.174191378311839,3.9,99515,80,15252,68.6,1,471,2.1,0,1002,4.5,0,1635,7.4,0,711,3.2,1,1098,39,1,4,1,106755,1,0,0
Everest Restaurant,61.1872406,-149.8678061,"3637 Old Seward Hwy, Anchorage, AK 99503, United States",ChIJb_CoT4uXyFYRo_sQIvnB2yk,/biz/everest-restaurant-anchorage?osq=Restaurants,1,4.8,99503,121,6167,47.4,0,1429,11,1,1206,9.3,1,1859,14.3,1,155,1.2,0,990,36.1,0,7.9,1,63338,0,0,1
Turnagain Arm Pit BBQ - Temp. CLOSED,61.1872326,-149.8678058,"3637 Old Seward Hwy, Anchorage, AK 99503, United States",ChIJqRbBfbmXyFYReb0JVQN8ao4,/biz/turnagain-arm-pit-bbq-indian?osq=Restaurants,0.201415995663951,4,99540,4,282,93.7,1,10,3.3,0,9,3,0,0,0,0,0,0,0,0,0,0,0,0,80938,0,1,1
L & L Hawaiian Barbecue,61.142683,-149.8677196,"800 E Dimond Blvd #3-011, Anchorage, AK 99515, United States",ChIJhwSSWNCZyFYRtXOPhru51nE,/biz/l-and-l-hawaiian-barbecue-anchorage-2?osq=Restaurants,0.156887027539875,4.2,99577,32,22970,84,1,425,1.6,0,638,2.3,0,588,2.2,0,175,0.6,0,1801,39,1,3.5,1,111388,1,1,0
Yogo Delight,61.1841596,-149.8675765,"4007 Old Seward Hwy # 200, Anchorage, AK 99503, United States",ChIJT0w0d7yXyFYRcCATvyPkT6Y,/biz/yogo-delight-anchorage?osq=Restaurants,0.0997998732106367,4.4,99508,30,15722,41.3,0,3106,8.2,1,5326,14,1,5151,13.5,1,2930,7.7,1,1605,25.3,0,6.5,1,65430,0,1,0
Sushi Ya,61.1888211,-149.8675676,"3501 Old Seward Hwy, Anchorage, AK 99503, United States",ChIJOyWARdeZyFYR1U_9kBxkuRc,/biz/sushi-ya-anchorage?osq=Restaurants,0.117727805559909,3.6,99517,17,10461,66.2,1,581,3.7,0,1160,7.3,1,1605,10.2,1,259,1.6,0,1255,47.1,1,6.4,1,82619,0,1,1
Sis's Cafe & Catering,61.1712348,-149.8672403,"5445 Old Seward Hwy #4, Anchorage, AK 99518, United States",ChIJdfx12puXyFYRfAsUdsYiGeE,/biz/siss-cafe-and-catering-anchorage?osq=Restaurants,0.0085634955751444,4.2,99518,22,6234,58.1,0,259,2.4,0,553,5.2,0,1298,12.1,1,192,1.8,0,587,21.2,0,3,0,84045,0,1,0
Peanut Farm,61.1731525,-149.8671983,"5227 Old Seward Hwy, Anchorage, AK 99518, United States",ChIJ8yRvXqC72lYRfReah3s7iLo,/biz/peanut-farm-anchorage?osq=Restaurants,0.154886127680404,3.1,99577,32,22970,84,1,425,1.6,0,638,2.3,0,588,2.2,0,175,0.6,0,1801,39,1,3.5,1,111388,1,1,0
Phonatik,61.1456118,-149.8671331,"901 E Dimond Blvd, Anchorage, AK 99515, United States",ChIJJ3Qb1tCZyFYR2LbEuKFoQVE,/biz/phonatik-anchorage?osq=Restaurants,0.134535860409434,3.8,99518,22,6234,58.1,0,259,2.4,0,553,5.2,0,1298,12.1,1,192,1.8,0,587,21.2,0,3,0,84045,0,1,1
K's Kitchen,61.1841088,-149.8667895,"4007 Old Seward Hwy #450, Anchorage, AK 99503, United States",ChIJo1AKIM-XyFYRzpO25LX2Qus,/biz/ks-kitchen-anchorage?osq=Restaurants,0.125833429598398,5,99503,121,6167,47.4,0,1429,11,1,1206,9.3,1,1859,14.3,1,155,1.2,0,990,36.1,0,7.9,1,63338,0,0,0
Benji's Bakery & Cafe,61.1456041,-149.8664402,"901 E Dimond Blvd C, Anchorage, AK 99515, United States",ChIJYeIhHAOZyFYRpbkyKcPchso,/biz/benjis-bakery-and-cafe-anchorage?osq=Restaurants,0.142624383391891,4.6,99501,77,9223,57.8,0,1150,7.2,1,2000,12.5,1,1059,6.6,0,520,3.3,1,1160,34.8,0,7.2,1,61509,0,1,1
Jerry's,61.145083,-149.8649015,"919 E Dimond Blvd, Anchorage, AK 99515, United States",ChIJzZvPLNeZyFYREks9CsF4p2w,/biz/jerrys-anchorage?osq=Restaurants,0.147316284953693,4.4,99507,46,20110,55.2,0,1159,3.2,0,3042,8.4,1,6913,19,1,623,1.7,0,2127,30.2,0,4.7,1,88485,0,1,1
House of Bread Bakery,61.1469987,-149.8647998,"8130 Old Seward Hwy #108, Anchorage, AK 99518, United States",ChIJ03XN-taZyFYRyJOsRoEipLw,/biz/house-of-bread-bakery-anchorage?osq=Restaurants,0.0808183875899377,4,99515,80,15252,68.6,1,471,2.1,0,1002,4.5,0,1635,7.4,0,711,3.2,1,1098,39,1,4,1,106755,1,0,1
Asia Garden Chinese Restaurant,61.1500188,-149.8647611,"7828 Old Seward Hwy, Anchorage, AK 99518, United States",ChIJnxQaDNaZyFYRaM9TUCE_bn0,/biz/asia-garden-chinese-restaurant-anchorage?osq=Restaurants,0.0999092527209173,2.9,99518,22,6234,58.1,0,259,2.4,0,553,5.2,0,1298,12.1,1,192,1.8,0,587,21.2,0,3,0,84045,0,1,0
Harley's Old Thyme Cafe,61.1524223,-149.8647587,"7550 Old Seward Hwy, Anchorage, AK 99518, United States",ChIJO_n5D36XyFYRvJBAFXVDwaM,/biz/harleys-old-thyme-cafe-anchorage-2?osq=Restaurants,0.0708450654453367,3.8,99503,121,6167,47.4,0,1429,11,1,1206,9.3,1,1859,14.3,1,155,1.2,0,990,36.1,0,7.9,1,63338,0,0,0
Judy's Cafe,61.1152054,-149.864476,"11620 Old Seward Hwy, Anchorage, AK 99515, United States",ChIJb-8TGJeZyFYRTap-omZGIvk,/biz/judys-cafe-anchorage?osq=Restaurants,0.0573244775785283,4.3,99502,17,15845,62.8,1,588,2.3,0,2954,11.7,1,2149,8.5,0,516,2,0,1161,25.2,0,5.4,1,94355,1,1,0
Melt,61.2178566,-149.8633984,"1033 E 5th Ave, Anchorage, AK 99501, United States",ChIJt1coxDqWyFYRVPQSajGsBr0,/biz/melt-anchorage?osq=Restaurants,0.127719796109488,4.5,99515,80,15252,68.6,1,471,2.1,0,1002,4.5,0,1635,7.4,0,711,3.2,1,1098,39,1,4,1,106755,1,0,0
Lucky Wishbone,61.2178566,-149.8633984,"1033 E 5th Ave, Anchorage, AK 99501, United States",ChIJt1coxDqWyFYRVPQSajGsBr0,/biz/lucky-wishbone-anchorage?osq=Restaurants,0.117624914720287,3.7,99518,22,6234,58.1,0,259,2.4,0,553,5.2,0,1298,12.1,1,192,1.8,0,587,21.2,0,3,0,84045,0,1,0
907 Alehouse & Grill,61.1481401,-149.8631319,"8001 Old Seward Hwy, Anchorage, AK 99518, United States",ChIJsX90-NaZyFYRGJ_WD0iQlaA,/biz/907-alehouse-and-grill-anchorage?osq=Restaurants,0.13060141647734,3.4,99503,121,6167,47.4,0,1429,11,1,1206,9.3,1,1859,14.3,1,155,1.2,0,990,36.1,0,7.9,1,63338,0,0,1
Manhattan Restaurant & Lounge,61.1183651,-149.8630979,"11321 Old Seward Hwy, Anchorage, AK 99515, United States",ChIJgTXMfZaZyFYRSUh_XYLxcOc,/biz/manhattan-restaurant-and-lounge-anchorage?osq=Restaurants,0.132540295743775,3.3,99503,121,6167,47.4,0,1429,11,1,1206,9.3,1,1859,14.3,1,155,1.2,0,990,36.1,0,7.9,1,63338,0,0,0
Mexico In Alaska Restaurant,61.154811,-149.8630738,"7305 Old Seward Hwy, Anchorage, AK 99518, United States",ChIJPTk89H6XyFYRGygLP2EH6uo,/biz/mexico-in-alaska-restaurant-anchorage?osq=Restaurants,0.0551587713990747,3.6,99503,121,6167,47.4,0,1429,11,1,1206,9.3,1,1859,14.3,1,155,1.2,0,990,36.1,0,7.9,1,63338,0,0,0
Boom Ba Laddy's,61.1417158,-149.8630653,"8801 Old Seward Hwy, Anchorage, AK 99515, United States",ChIJAQAAALeXyFYRCXnYCqTlOAM,/biz/boom-ba-laddys-anchorage?osq=Restaurants,0.123739939402246,3.3,99501,77,9223,57.8,0,1150,7.2,1,2000,12.5,1,1059,6.6,0,520,3.3,1,1160,34.8,0,7.2,1,61509,0,1,0
Top Bop - South,61.1378187,-149.862843,"9191 Old Seward Hwy STE 18, Anchorage, AK 99515, United States",ChIJ6RozecGZyFYR5yTMX5eoQXM,/biz/top-bop-south-anchorage-6?osq=Restaurants,0.0603536211351603,3.8,99507,46,20110,55.2,0,1159,3.2,0,3042,8.4,1,6913,19,1,623,1.7,0,2127,30.2,0,4.7,1,88485,0,1,0
"Suite 100 Restaurant, Bar & Lounge",61.1441745,-149.8627901,"1000 E Dimond Blvd #100, Anchorage, AK 99515, United States",ChIJ59Y8sdCZyFYRx9_A_xli1rY,/biz/suite-100-restaurant-bar-and-lounge-anchorage?osq=Restaurants,0.128855640450365,3.7,99503,121,6167,47.4,0,1429,11,1,1206,9.3,1,1859,14.3,1,155,1.2,0,990,36.1,0,7.9,1,63338,0,0,1
Jeepney by Adobo Grill,61.137909,-149.8624687,"9191 Old Seward Hwy, 2477 Arctic Blvd, Anchorage, AK 99515, United States",ChIJrVZRtDuZyFYRH8uvG0VL7ws,/biz/jeepney-by-adobo-grill-anchorage?osq=Restaurants,0.12019667325642,3.4,99501,77,9223,57.8,0,1150,7.2,1,2000,12.5,1,1059,6.6,0,520,3.3,1,1160,34.8,0,7.2,1,61509,0,1,0
Main Event Grill,61.1522473,-149.8624301,"1041 E 76th Ave #1A, Anchorage, AK 99518, United States",ChIJ1_f4iZ6XyFYRJ2To_nICb-s,/biz/main-event-grill-anchorage-2?osq=Restaurants,0.117301686318214,3.5,99517,17,10461,66.2,1,581,3.7,0,1160,7.3,1,1605,10.2,1,259,1.6,0,1255,47.1,1,6.4,1,82619,0,1,0
Bombay South Indian Cuisine,61.1081426,-149.8623281,"1120 Huffman Rd #5, Anchorage, AK 99515, United States",ChIJz_rLT0WZyFYRaFaU3_t1apo,/biz/bombay-south-indian-cuisine-anchorage?osq=Restaurants,0.0426187014530073,3.9,99507,46,20110,55.2,0,1159,3.2,0,3042,8.4,1,6913,19,1,623,1.7,0,2127,30.2,0,4.7,1,88485,0,1,0
Winkys Wings,61.1380666,-149.8623203,"9191 Old Seward Hwy, Anchorage, AK 99515, United States",ChIJnV6UKsWZyFYRMHVIwutj8zw,/biz/winkys-wings-anchorage-2?osq=Restaurants,0.0553619755372563,3.9,99518,22,6234,58.1,0,259,2.4,0,553,5.2,0,1298,12.1,1,192,1.8,0,587,21.2,0,3,0,84045,0,1,0
Miso Sushi,61.1449922,-149.8612137,"1111E E Dimond Blvd, Anchorage, AK 99515, United States",ChIJzTQNrw6ZyFYR7Cybbn8QQGk,/biz/miso-sushi-anchorage?osq=Restaurants,0.139523189915244,4.5,99518,22,6234,58.1,0,259,2.4,0,553,5.2,0,1298,12.1,1,192,1.8,0,587,21.2,0,3,0,84045,0,1,1
Mochileros Street Food,61.130153,-149.8601063,"1221 China Berry Cir, Anchorage, AK 99515, United States",ChIJC430E1yZyFYRj-PAxx3KNgM,/biz/mochileros-street-food-anchorage?osq=Restaurants,0.081894162950652,4.3,99517,17,10461,66.2,1,581,3.7,0,1160,7.3,1,1605,10.2,1,259,1.6,0,1255,47.1,1,6.4,1,82619,0,1,0
Fresh Cup Playhouse,61.1450376,-149.8595021,"1201 E Dimond Blvd, Anchorage, AK 99515, United States",ChIJ-5oBFuSZyFYRvOjX1YRHHiI,/biz/fresh-cup-playhouse-anchorage?osq=Restaurants,0.089416664692806,4.8,99503,121,6167,47.4,0,1429,11,1,1206,9.3,1,1859,14.3,1,155,1.2,0,990,36.1,0,7.9,1,63338,0,0,1
reHARU Sushi,61.145239,-149.858819,"1231 E Dimond Blvd, Anchorage, AK 99515, United States",ChIJM6YhhjKYyFYR6P9YYWQ229s,/biz/reharu-sushi-anchorage-2?osq=Restaurants,0.125235901361031,4.1,99515,80,15252,68.6,1,471,2.1,0,1002,4.5,0,1635,7.4,0,711,3.2,1,1098,39,1,4,1,106755,1,0,1
Southside Grill,61.1038368,-149.8582864,"12870 Old Seward Hwy, Anchorage, AK 99515, United States",ChIJiWQnZYOZyFYRIQzrRurQ_YU,/biz/southside-grill-anchorage?osq=Restaurants,0.17712430669059,4.5,99515,80,15252,68.6,1,471,2.1,0,1002,4.5,0,1635,7.4,0,711,3.2,1,1098,39,1,4,1,106755,1,0,0
Southside Bistro,61.1097545,-149.8575437,"1320 Huffman Park Dr, Anchorage, AK 99515, United States",ChIJGRTkk5qZyFYRBhIaNXe6448,/biz/southside-bistro-anchorage-2?osq=Restaurants,0.15744722860405,4.2,99577,32,22970,84,1,425,1.6,0,638,2.3,0,588,2.2,0,175,0.6,0,1801,39,1,3.5,1,111388,1,1,0
Blaine's Kitchen,61.1796658,-149.8562609,"1436 E Tudor Rd, Anchorage, AK 99507, United States",ChIJIzzLpQWXyFYRPCb8lDgEr6A,/biz/blaines-kitchen-anchorage?osq=Restaurants,0.038249993003196,3,99501,77,9223,57.8,0,1150,7.2,1,2000,12.5,1,1059,6.6,0,520,3.3,1,1160,34.8,0,7.2,1,61509,0,1,0
Bread and Brew Alaska,61.180326,-149.8535783,"1450 E Tudor Rd STE 100, Anchorage, AK 99507, United States",ChIJv_WokqOXyFYR2JBEcmv78To,/biz/bread-and-brew-alaska-anchorage?osq=Restaurants,0.19262954365029,4,99507,46,20110,55.2,0,1159,3.2,0,3042,8.4,1,6913,19,1,623,1.7,0,2127,30.2,0,4.7,1,88485,0,1,0
TaTu BBQ,61.0982203387752,-149.850767044854,"13500 Old Seward Hwy, Anchorage, AK 99515, United States",ChIJn7uZ5RIhnlQRfwM9QNSaksU,/biz/tatu-bbq-anchorage?osq=Restaurants,0.0169584769027015,3.8,99577,32,22970,84,1,425,1.6,0,638,2.3,0,588,2.2,0,175,0.6,0,1801,39,1,3.5,1,111388,1,1,0
Davons' Place House of Soul,61.0980399,-149.8505007,"13500 Old Seward Hwy, Anchorage, AK 99515, United States",ChIJY7goQ5GZyFYRLSPCUWDSodc,/biz/davons-place-house-of-soul-anchorage?osq=Restaurants,0.008507733552156,3.7,99503,121,6167,47.4,0,1429,11,1,1206,9.3,1,1859,14.3,1,155,1.2,0,990,36.1,0,7.9,1,63338,0,0,0
Long Branch Saloon,61.1451017,-149.8493037,"1737 E Dimond Blvd, Anchorage, AK 99507, United States",ChIJz9sF59iZyFYRVfNRaIMlr60,/biz/long-branch-saloon-anchorage?osq=Restaurants,0.119554639093409,3.8,99508,30,15722,41.3,0,3106,8.2,1,5326,14,1,5151,13.5,1,2930,7.7,1,1605,25.3,0,6.5,1,65430,0,1,0
Seward's Folly Bar & Grill,61.1407056,-149.8466362,"1811 Abbott Rd, Anchorage, AK 99507, United States",ChIJcZK6gt6ZyFYRQzE1qsaXOzg,/biz/sewards-folly-bar-and-grill-anchorage?osq=Restaurants,0.112984393456824,4.9,99503,121,6167,47.4,0,1429,11,1,1206,9.3,1,1859,14.3,1,155,1.2,0,990,36.1,0,7.9,1,63338,0,0,0
Rice Garden Anchorage,61.2183732,-149.8459737,"400 Sitka St, Anchorage, AK 99501, United States",ChIJRfpiZc-XyFYR0QJDIIz28Uc,/biz/rice-garden-anchorage-anchorage-2?osq=Restaurants,0.159454071803167,4.4,99501,77,9223,57.8,0,1150,7.2,1,2000,12.5,1,1059,6.6,0,520,3.3,1,1160,34.8,0,7.2,1,61509,0,1,0
Los Arcos,61.1661773,-149.8453373,"2000 E Dowling Rd, Anchorage, AK 99507, United States",ChIJT8ImqXaXyFYRLWdq7ti3B0A,/biz/los-arcos-anchorage?osq=Restaurants,0.063692395926738,3.8,99504,62,21807,52.2,0,4213,10.1,1,2973,7.1,0,4912,11.8,1,1703,4.1,1,1965,27.5,0,5.4,1,75956,0,0,0
Lahn Pad Thai,61.138298,-149.843428,"2101 Abbott Rd #7, Anchorage, AK 99507, United States",ChIJAbZO2d2ZyFYRhdcoNtCeVjg,/biz/lahn-pad-thai-anchorage?osq=Restaurants,0.118583413694322,4,99507,46,20110,55.2,0,1159,3.2,0,3042,8.4,1,6913,19,1,623,1.7,0,2127,30.2,0,4.7,1,88485,0,1,0
Turkish Delight,61.19512,-149.83975,"2210 E Northern Lights Blvd, Ste 110, Anchorage, AK 99508",-,/biz/turkish-delight-anchorage?osq=Restaurants,0.214489654003144,4.6,99508,30,15722,41.3,0,3106,8.2,1,5326,14,1,5151,13.5,1,2930,7.7,1,1605,25.3,0,6.5,1,65430,0,1,0
Little Italy Restaurante,61.140744,-149.8391631,"2300 E 88th Ave, Anchorage, AK 99507, United States",ChIJwc9KId6ZyFYReCk9hR2v8vg,/biz/little-italy-restaurante-anchorage?osq=Restaurants,0.154039478933012,3.8,99503,121,6167,47.4,0,1429,11,1,1206,9.3,1,1859,14.3,1,155,1.2,0,990,36.1,0,7.9,1,63338,0,0,0
Golden Donuts,61.181058,-149.8391475,"2213 E Tudor Rd, Anchorage, AK 99508, United States",ChIJGSrE4qaXyFYRpAJ3koWm05M,/biz/golden-donuts-anchorage?osq=Restaurants,0.100860375101456,3.3,99577,32,22970,84,1,425,1.6,0,638,2.3,0,588,2.2,0,175,0.6,0,1801,39,1,3.5,1,111388,1,1,0
Thai Orchid,61.1672431,-149.8376657,"5905 Lake Otis Pkwy A, Anchorage, AK 99507, United States",ChIJEeVnwNKZyFYR7NuQG_qjjmk,/biz/thai-orchid-anchorage-2?osq=Restaurants,0.131183083452581,4,99515,80,15252,68.6,1,471,2.1,0,1002,4.5,0,1635,7.4,0,711,3.2,1,1098,39,1,4,1,106755,1,0,0
Josie's Bakery,61.1672464,-149.8364348,"5915 Lake Otis Pkwy #5, Anchorage, AK 99507, United States",ChIJ461nGqSXyFYRNlNzE7wlkMo,/biz/josie-s-bakery-anchorage?osq=Restaurants,0.148152290544219,5,99515,80,15252,68.6,1,471,2.1,0,1002,4.5,0,1635,7.4,0,711,3.2,1,1098,39,1,4,1,106755,1,0,0
Lalo's Pizza Take Out,61.1672331,-149.8363495,"5915 Lake Otis Pkwy # 6, Anchorage, AK 99507, United States",ChIJ4b1VBnOXyFYRhF6GC-m-34U,/biz/lalos-pizza-take-out-anchorage?osq=Restaurants,0.116660603598376,4.6,99515,80,15252,68.6,1,471,2.1,0,1002,4.5,0,1635,7.4,0,711,3.2,1,1098,39,1,4,1,106755,1,0,0
Namaste Shangri-La,61.1802475,-149.8357509,"2446 E Tudor Rd, Anchorage, AK 99507, United States",ChIJzU1jJgiXyFYRzpfqkRoyNMo,/biz/namaste-shangri-la-anchorage?osq=Restaurants,0.146555210740995,4,99507,46,20110,55.2,0,1159,3.2,0,3042,8.4,1,6913,19,1,623,1.7,0,2127,30.2,0,4.7,1,88485,0,1,0
Ichiban Japanese Restaurant,61.1802886,-149.8349665,"2488 E Tudor Rd, Anchorage, AK 99507, United States",ChIJLfokOwiXyFYResER49NEM9w,/biz/ichiban-japanese-restaurant-anchorage?osq=Restaurants,0.110286300419007,3.5,99503,121,6167,47.4,0,1429,11,1,1206,9.3,1,1859,14.3,1,155,1.2,0,990,36.1,0,7.9,1,63338,0,0,0
Mo's Deli and Catering,61.1363878,-149.8348514,"9220 Lake Otis Pkwy, Anchorage, AK 99507, United States",ChIJjyLZZAuZyFYRTtqq7ADKLpw,/biz/mos-deli-and-catering-anchorage?osq=Restaurants,0.0297312215762437,4.3,99515,80,15252,68.6,1,471,2.1,0,1002,4.5,0,1635,7.4,0,711,3.2,1,1098,39,1,4,1,106755,1,0,0
Lucy's,61.1901131,-149.8322363,"Cuddy Hall, 3400, Seawolf Dr, Anchorage, AK 99508, United States",ChIJgf_1DQCXyFYRKhIMIvHaw6E,/biz/lucys-anchorage?osq=Restaurants,0.130291551026382,4.7,99577,32,22970,84,1,425,1.6,0,638,2.3,0,588,2.2,0,175,0.6,0,1801,39,1,3.5,1,111388,1,1,0
MVP Sports Deli & Eatery,61.1806016,-149.8285731,"2808 E Tudor Rd, Anchorage, AK 99507, United States",ChIJSV6taUeXyFYRi2dPlg71wkg,/biz/mvp-sports-deli-and-eatery-anchorage?osq=Restaurants,0.12976028884604,4.5,99504,62,21807,52.2,0,4213,10.1,1,2973,7.1,0,4912,11.8,1,1703,4.1,1,1965,27.5,0,5.4,1,75956,0,0,0
Ghost Kitchen,61.1804684,-149.8277557,"2844 E Tudor Rd, Anchorage, AK 99507, United States",ChIJN6-icfGXyFYRjQytBrr16bU,/biz/ghost-kitchen-anchorage?osq=Restaurants,0.107297407484152,3.3,99503,121,6167,47.4,0,1429,11,1,1206,9.3,1,1859,14.3,1,155,1.2,0,990,36.1,0,7.9,1,63338,0,0,0
Spinz Pollo A La Brasa,61.2194904,-149.8229577,"3024 Mountain View Dr #108, Anchorage, AK 99501, United States",ChIJtcnxcP2XyFYRbufmn6pI-p4,/biz/spinz-pollo-a-la-brasa-anchorage?osq=Restaurants,0.158773004232116,4,99501,77,9223,57.8,0,1150,7.2,1,2000,12.5,1,1059,6.6,0,520,3.3,1,1160,34.8,0,7.2,1,61509,0,1,0
Waffle Rush,61.2201592,-149.8203804,"3048 Mountain View Dr #101, Anchorage, AK 99508, United States",ChIJr4FnKpKWyFYRPKG6fLR2G_o,/biz/waffle-rush-anchorage-4?osq=Restaurants,0.153446356258913,4.3,99517,17,10461,66.2,1,581,3.7,0,1160,7.3,1,1605,10.2,1,259,1.6,0,1255,47.1,1,6.4,1,82619,0,1,0
Xalos Mexican Grill,61.2201638,-149.818739,"3048 Mountain View Dr #140, Anchorage, AK 99501, United States",ChIJS6p1l2mWyFYR4RS11-VzsBw,/biz/xalos-mexican-grill-anchorage?osq=Restaurants,0.077141528471224,4,99515,80,15252,68.6,1,471,2.1,0,1002,4.5,0,1635,7.4,0,711,3.2,1,1098,39,1,4,1,106755,1,0,0
Kriner's Burgers & Pies,61.220445,-149.8183209,"3074 Mountain View Dr #151, Anchorage, AK 99508, United States",ChIJX4jHn2mWyFYRwLWB2MY7G7M,/biz/kriners-burgers-and-pies-anchorage?osq=Restaurants,0.0423984003229277,3.8,99515,80,15252,68.6,1,471,2.1,0,1002,4.5,0,1635,7.4,0,711,3.2,1,1098,39,1,4,1,106755,1,0,0
Thai Kitchen,61.1816621,-149.8162067,"3421 E Tudor Rd #A, Anchorage, AK 99507, United States",ChIJ1SlSpAWXyFYRzNU9f-q9qTU,/biz/thai-kitchen-anchorage?osq=Restaurants,0.025612924244963,3.4,99507,46,20110,55.2,0,1159,3.2,0,3042,8.4,1,6913,19,1,623,1.7,0,2127,30.2,0,4.7,1,88485,0,1,0
Golden Gate Restaurant,61.1816662,-149.8146538,"3471 E Tudor Rd, Anchorage, AK 99507, United States",ChIJK4CRBgWXyFYR4P0cuzSvZvs,/biz/golden-gate-restaurant-anchorage?osq=Restaurants,0.125160204174997,3.7,99517,17,10461,66.2,1,581,3.7,0,1160,7.3,1,1605,10.2,1,259,1.6,0,1255,47.1,1,6.4,1,82619,0,1,0
Varsity Sports Grill,61.1884394,-149.8139897,"3550 Providence Dr, Anchorage, AK 99508, United States",ChIJc5S9kwGXyFYRQZbwURxofcc,/biz/varsity-sports-grill-anchorage-2?osq=Restaurants,0.0168920413559437,2.2,99515,80,15252,68.6,1,471,2.1,0,1002,4.5,0,1635,7.4,0,711,3.2,1,1098,39,1,4,1,106755,1,0,0
Napoli's Pizza,61.2071716,-149.8076938,"1565 Bragaw St STE 101, Anchorage, AK 99508, United States",ChIJcRi-HlmWyFYR8u_zbe7Qaxo,/biz/napolis-pizza-anchorage?osq=Restaurants,0.0084674018624224,3.9,99501,77,9223,57.8,0,1150,7.2,1,2000,12.5,1,1059,6.6,0,520,3.3,1,1160,34.8,0,7.2,1,61509,0,1,0
West Berlin,61.2243227,-149.8029845,"4133 Mountain View Dr, Anchorage, AK 99508, United States",ChIJTScliG-WyFYR6htENC7i8kI,/biz/west-berlin-anchorage?osq=Restaurants,0.159073885305492,4.2,99508,30,15722,41.3,0,3106,8.2,1,5326,14,1,5151,13.5,1,2930,7.7,1,1605,25.3,0,6.5,1,65430,0,1,0
Hula Hands Restaurant 4630,61.2259616,-149.7938753,"4630 Mountain View Dr, Anchorage, AK 99508, United States",ChIJdRPcH3uWyFYRRixZuaLrv5A,/biz/hula-hands-restaurant-4630-anchorage?osq=Restaurants,0.135804262351039,4.1,99503,121,6167,47.4,0,1429,11,1,1206,9.3,1,1859,14.3,1,155,1.2,0,990,36.1,0,7.9,1,63338,0,0,0
Meraki Hellenic Grill,61.2213762,-149.7792466,"360 Boniface Pkwy, Anchorage, AK 99504, United States",ChIJk90N6YnryFYR0jcracPcOZg,/biz/meraki-hellenic-grill-anchorage-3?osq=Restaurants,0.185946626282898,4.7,99504,62,21807,52.2,0,4213,10.1,1,2973,7.1,0,4912,11.8,1,1703,4.1,1,1965,27.5,0,5.4,1,75956,0,0,0
Smokehouse BBQ,61.2092802,-149.7780386,"5500 DeBarr Rd, Anchorage, AK 99504, United States",ChIJ4bIz5IyWyFYRl_g5Ocv82hE,/biz/smokehouse-bbq-anchorage-3?osq=Restaurants,0.100719737470743,4.8,99503,121,6167,47.4,0,1429,11,1,1206,9.3,1,1859,14.3,1,155,1.2,0,990,36.1,0,7.9,1,63338,0,0,0
Tropical Latin Food,61.2212348,-149.7777421,"341 Boniface Pkwy, Anchorage, AK 99504, United States",ChIJE6ZI4YeWyFYR6pORWouMLOg,/biz/tropical-latin-food-anchorage?osq=Restaurants,0.0637233114588543,3.6,99577,32,22970,84,1,425,1.6,0,638,2.3,0,588,2.2,0,175,0.6,0,1801,39,1,3.5,1,111388,1,1,0
Charleys Cheesesteaks,61.2358293,-149.7663437,"Joint Military Mall, 5800 Westover Ave, Elmendorf AFB, AK 99506, United States",ChIJT2zJ6NSVyFYRvMQcG1A83Zk,/biz/charleys-philly-steaks-anchorage-3?osq=Restaurants,0.0982817678814087,4.8,99503,121,6167,47.4,0,1429,11,1,1206,9.3,1,1859,14.3,1,155,1.2,0,990,36.1,0,7.9,1,63338,0,0,0
Cafecito Bonito,61.2100641,-149.7631398,"6307 DeBarr Rd A, Anchorage, AK 99504, United States",ChIJ5SNNaRSXyFYRmyLOzn6YZnQ,/biz/cafecito-bonito-anchorage?osq=Restaurants,0.064977682404333,3.4,99507,46,20110,55.2,0,1159,3.2,0,3042,8.4,1,6913,19,1,623,1.7,0,2127,30.2,0,4.7,1,88485,0,1,0
The Hott Spot,61.2104955,-149.7626081,"6311 DeBarr Rd F, Anchorage, AK 99504, United States",ChIJRwKXL_aXyFYRUMDLC_fK4WQ,/biz/the-hott-spot-anchorage-2?osq=Restaurants,0.239019137577396,4.4,99504,62,21807,52.2,0,4213,10.1,1,2973,7.1,0,4912,11.8,1,1703,4.1,1,1965,27.5,0,5.4,1,75956,0,0,0
Ryuu Bowl,61.2286525,-149.7423992,"1142 N Muldoon Rd #120, Anchorage, AK 99504, United States",ChIJgYuJVNCVyFYRKHxYnVYZ5fk,/biz/ryuu-bowl-anchorage-2?osq=Restaurants,0.114312043299573,4.1,99503,121,6167,47.4,0,1429,11,1,1206,9.3,1,1859,14.3,1,155,1.2,0,990,36.1,0,7.9,1,63338,0,0,0
Raising Cane's Chicken Fingers,61.229949,-149.741059,"1172 N Muldoon Rd J, Anchorage, AK 99504, United States",ChIJzxketmeVyFYRCyABUMBoi08,/biz/raising-canes-chicken-fingers-anchorage-2?osq=Restaurants,0.0337682046406197,3.5,99507,46,20110,55.2,0,1159,3.2,0,3042,8.4,1,6913,19,1,623,1.7,0,2127,30.2,0,4.7,1,88485,0,1,0
Texas Roadhouse,61.22955,-149.7409001,"1154 N Muldoon Rd, Anchorage, AK 99504, United States",ChIJY95WvSeUyFYR9-HamI4_-UQ,/biz/texas-roadhouse-anchorage-8?osq=Restaurants,0.123439799761313,3.5,99504,62,21807,52.2,0,4213,10.1,1,2973,7.1,0,4912,11.8,1,1703,4.1,1,1965,27.5,0,5.4,1,75956,0,0,0
Top Bop - Muldoon,61.2218343,-149.7351549,"220 Muldoon Rd, Anchorage, AK 99504, United States",ChIJn2ruOp6WyFYRzccnd8-jcDA,/biz/top-bop-muldoon-anchorage-6?osq=Restaurants,0.122316724072138,3.4,99515,80,15252,68.6,1,471,2.1,0,1002,4.5,0,1635,7.4,0,711,3.2,1,1098,39,1,4,1,106755,1,0,0
Kava's Pancake House,61.2239794,-149.7346597,"100 Muldoon Rd, Anchorage, AK 99504, United States",ChIJb718vSCUyFYReCZrpl7CBvE,/biz/kavas-pancake-house-anchorage-2?osq=Restaurants,0.0253592335844613,3.8,99501,77,9223,57.8,0,1150,7.2,1,2000,12.5,1,1059,6.6,0,520,3.3,1,1160,34.8,0,7.2,1,61509,0,1,0
Waffles and Whatnot,61.218058,-149.7341934,"500 Muldoon Rd #5, Anchorage, AK 99504, United States",ChIJawFM3gSXyFYR9yyQGlitmxQ,/biz/waffles-and-whatnot-anchorage-5?osq=Restaurants,0.144841947392973,4.2,99508,30,15722,41.3,0,3106,8.2,1,5326,14,1,5151,13.5,1,2930,7.7,1,1605,25.3,0,6.5,1,65430,0,1,0
Ronnie 2,61.2139402,-149.7341088,"924 Muldoon Rd, Anchorage, AK 99504, United States",ChIJxcDwQqKWyFYRIkTmj-QO59A,/biz/ronnie-2-anchorage?osq=Restaurants,0.042489069752138,3.9,99515,80,15252,68.6,1,471,2.1,0,1002,4.5,0,1635,7.4,0,711,3.2,1,1098,39,1,4,1,106755,1,0,0
Oriental Garden,61.2154329,-149.734088,"720 Muldoon Rd, Anchorage, AK 99504, United States",ChIJFSaWGqKWyFYRh8umWl-ThJ8,/biz/oriental-garden-anchorage?osq=Restaurants,0.139229112540668,3.9,99501,77,9223,57.8,0,1150,7.2,1,2000,12.5,1,1059,6.6,0,520,3.3,1,1160,34.8,0,7.2,1,61509,0,1,0
Mr. Darryl's Southern BBQ,61.210513,-149.7323432,"1241 Muldoon Rd, Anchorage, AK 99504, United States",ChIJ6XGuQKOWyFYRfSfUAG6e1sw,/biz/mr-darryls-southern-bbq-anchorage?osq=Restaurants,0.110732605338047,4.5,99503,121,6167,47.4,0,1429,11,1,1206,9.3,1,1859,14.3,1,155,1.2,0,990,36.1,0,7.9,1,63338,0,0,0
Eagle River Fried Rice Express,61.3302008,-149.5706949,"12110 Business Blvd #2, Eagle River, AK 99577, United States",ChIJUyKUcUnryFYRxNunV7ra_dE,/biz/eagle-river-fried-rice-express-anchorage?osq=Restaurants,0.0042189463692342,3.9,99517,17,10461,66.2,1,581,3.7,0,1160,7.3,1,1605,10.2,1,259,1.6,0,1255,47.1,1,6.4,1,82619,0,1,0
Mike's Quality Meats,61.3302233,-149.57013,"12110 Business Blvd, Eagle River, AK 99577, United States",ChIJw98zg3PryFYRyqhoX9xyjps,/biz/mikes-quality-meats-eagle-river?osq=Restaurants,0.0558733801493923,4,99515,80,15252,68.6,1,471,2.1,0,1002,4.5,0,1635,7.4,0,711,3.2,1,1098,39,1,4,1,106755,1,0,0
Da J3rk Spot,61.3302266,-149.5694881,"12110 Business Blvd, Eagle River, AK 99577, United States",ChIJgwdL1-PryFYRo1xS3yxQDls,/biz/da-j3rk-spot-eagle-river?osq=Restaurants,0.168059573623022,4.5,99518,22,6234,58.1,0,259,2.4,0,553,5.2,0,1298,12.1,1,192,1.8,0,587,21.2,0,3,0,84045,0,1,0
EL Pastor,61.3318263,-149.5684545,"12300 Old Glenn Hwy, Eagle River, AK 99577, United States",ChIJe1SlBe7ryFYRwyPA7yFyNRk,/biz/el-pastor-eagle-river?osq=Restaurants,0.145687600046913,4.4,99515,80,15252,68.6,1,471,2.1,0,1002,4.5,0,1635,7.4,0,711,3.2,1,1098,39,1,4,1,106755,1,0,0
Lexie's Cafe,61.3283641,-149.5682486,"11925 Old Glenn Hwy, Eagle River, AK 99577, United States",ChIJrZSvtPvryFYRM3U3DB5yzX4,/biz/lexie-s-cafe-eagle-river?osq=Restaurants,0.0481151771714033,4.5,99515,80,15252,68.6,1,471,2.1,0,1002,4.5,0,1635,7.4,0,711,3.2,1,1098,39,1,4,1,106755,1,0,0
Pete's Barbecue,61.3322323,-149.5650619,"12349 Old Glenn Hwy, Eagle River, AK 99577, United States",ChIJT51vNXTryFYRZObY_Tv6LlQ,/biz/petes-barbecue-eagle-river?osq=Restaurants,0.127100894370086,4.1,99501,77,9223,57.8,0,1150,7.2,1,2000,12.5,1,1059,6.6,0,520,3.3,1,1160,34.8,0,7.2,1,61509,0,1,0
Tinker's Rainforest Deli,61.335569,-149.5642244,"12812 Old Glenn Hwy # A-6, Eagle River, AK 99577, United States",ChIJO3kcYHXryFYRUKiBCa1mBfM,/biz/tinkers-rainforest-deli-eagle-river?osq=Restaurants,0.123781331552418,4.4,99503,121,6167,47.4,0,1429,11,1,1206,9.3,1,1859,14.3,1,155,1.2,0,990,36.1,0,7.9,1,63338,0,0,0
Corks & Hops,61.3341264,-149.5635497,"12551 Old Glenn Hwy Unit A, Eagle River, AK 99577, United States",ChIJY2uO51XtyFYR_ZpbLsnUVhk,/biz/corks-and-hops-anchorage?osq=Restaurants,0.157334518115121,4,99503,121,6167,47.4,0,1429,11,1,1206,9.3,1,1859,14.3,1,155,1.2,0,990,36.1,0,7.9,1,63338,0,0,0
Pomodoro Restaurant,61.3364759,-149.5617365,"12801 Old Glenn Hwy, Eagle River, AK 99577, United States",ChIJNZta4STryFYR3MZWLgvLot8,/biz/pomodoro-restaurant-eagle-river?osq=Restaurants,0.143452885556441,3.8,99501,77,9223,57.8,0,1150,7.2,1,2000,12.5,1,1059,6.6,0,520,3.3,1,1160,34.8,0,7.2,1,61509,0,1,0
El Senor Moose,61.3132846294356,-149.550250214713,"Eagle river, AK 99577, United States",ChIJlVsbE45PMlERih-F5qxtzTc,/biz/el-senor-moose-eagle-river?osq=Restaurants,0.132726201245215,4.3,99504,62,21807,52.2,0,4213,10.1,1,2973,7.1,0,4912,11.8,1,1703,4.1,1,1965,27.5,0,5.4,1,75956,0,0,0
Birch & Alder,60.9875187,-149.5168105,"27635 Seward Hwy, Anchorage, AK 99540, United States",ChIJ5Q9SgbaHyFYRvc4RF1WxE8U,/biz/birch-and-alder-anchorage?osq=Restaurants,0.300275751106455,4.8,99540,4,282,93.7,1,10,3.3,0,9,3,0,0,0,0,0,0,0,0,0,0,0,0,80938,0,1,0
Brown Bear Saloon & Hotel,60.9857177,-149.4979858,"28065 Seward Hwy, Indian, AK 99540, United States",ChIJyXPNq1yHyFYRRLlCC8w1zR8,/biz/brown-bear-saloon-and-hotel-anchorage?osq=Restaurants,0.17865618356201,4.3,99540,4,282,93.7,1,10,3.3,0,9,3,0,0,0,0,0,0,0,0,0,0,0,0,80938,0,1,0