Name_x,URL,ZIP,Count,AverageExposure,Stars,Latitude,Longitude,Address,PlaceID,White,ofWhite,WN,Black,ofBlack,BN,AmericanIndaian,ofAI,AIN,Asian,ofAisan,AN,NativeHawiian,ofNativeHawiian,NHN,Edu,ofEDU,HED,Unemployment,HUne,Wealth,HWe,Attraction,Hotspot
Tacotlan,/biz/tacotlan-chicago?osq=Restaurants,60639,119,0.076603825,4.4,41.9245508,-87.7346732,"4312 W Fullerton Ave, Chicago, IL 60639, United States",ChIJ__9jqh3ND4gRyXxBP4BY1Tk,34865,39.2,0,12769,14.3,0,588,0.7,1,1879,2.1,0,41,0,0,2694,22.2,0,6.3,1,53197,0,0,0
Grandma Annie's Pizza,/biz/grandma-annies-pizza-chicago?osq=Restaurants,60647,248,0.108708208,3.8,41.9101945,-87.7245734,"3912 W North Ave, Chicago, IL 60647, United States",ChIJk9N9iPbND4gR-8GA9mFU_e0,58385,68.2,1,5701,6.7,0,476,0.6,1,3658,4.3,0,62,0.1,1,20518,76.1,1,3.7,1,89974,1,0,0
The Soul Food Lounge,/biz/the-soul-food-lounge-chicago?osq=Restaurants,60623,71,0.43065666,4.5,41.859042,-87.7204907,"3804 W 16th St, Chicago, IL 60623, United States",ChIJQcmd77gzDogR_eWS1XQ8dv4,22889,29.6,0,22680,29.3,1,623,0.8,1,288,0.4,0,24,0,0,2146,17.9,0,12.5,1,35890,0,0,0
La Nonna,/biz/la-nonna-chicago?osq=Restaurants,60618,177,0.129171183,4.7,41.9429563,-87.7201368,"3400 N Lawndale Ave, Chicago, IL 60618, United States",ChIJa-MntqPND4gRLN1bNdGoJws,62235,65.5,1,2661,2.8,0,199,0.2,0,6151,6.5,0,154,0.2,1,13382,65.7,1,4.8,1,91650,1,0,0
The Little Pickle,/biz/the-little-pickle-chicago?osq=Restaurants,60647,248,0.125538692,4.8,41.9244205,-87.7196575,"3703 W Fullerton Ave, Chicago, IL 60647, United States",ChIJw9rj_xLND4gRTsMqBVc7zqo,58385,68.2,1,5701,6.7,0,476,0.6,1,3658,4.3,0,62,0.1,1,20518,76.1,1,3.7,1,89974,1,0,0
Wyler Road,/biz/wyler-road-chicago?osq=Restaurants,60647,248,0.084403424,4,41.9225373,-87.7167347,"3581 W Belden Ave, Chicago, IL 60647, United States",ChIJcfE3sGzND4gRnMnsfhhKAd0,58385,68.2,1,5701,6.7,0,476,0.6,1,3658,4.3,0,62,0.1,1,20518,76.1,1,3.7,1,89974,1,0,0
Loaf Lounge,/biz/loaf-lounge-chicago?osq=Restaurants,60618,177,0.098604017,4.1,41.9345637,-87.7166469,"2934 N Milwaukee Ave Suite E, Chicago, IL 60618, United States",ChIJ0xyjQETND4gRaX412C9BD_4,62235,65.5,1,2661,2.8,0,199,0.2,0,6151,6.5,0,154,0.2,1,13382,65.7,1,4.8,1,91650,1,0,0
Mother's Ruin,/biz/mother-s-ruin-chicago?osq=Restaurants,60618,177,0.153294413,4.5,41.934971,-87.7164668,"2943 N Milwaukee Ave, Chicago, IL 60618, United States",ChIJNaL7s1nND4gRgjh3CyL8e2M,62235,65.5,1,2661,2.8,0,199,0.2,0,6151,6.5,0,154,0.2,1,13382,65.7,1,4.8,1,91650,1,0,0
Dorothy's Bistro,/biz/dorothys-bistro-chicago?osq=Restaurants,60647,248,0.110892949,4.1,41.9247785,-87.715605,"3524 W Fullerton Ave, Chicago, IL 60647, United States",ChIJY9nla2_TD4gR4ICzDlIUzLA,58385,68.2,1,5701,6.7,0,476,0.6,1,3658,4.3,0,62,0.1,1,20518,76.1,1,3.7,1,89974,1,0,0
Monster Ramen,/biz/monster-ramen-chicago?osq=Restaurants,60647,248,0.178972904,4.3,41.924496,-87.7135482,"3435 W Fullerton Ave, Chicago, IL 60647, United States",ChIJh_X96FXND4gRdTQN8D7WrHU,58385,68.2,1,5701,6.7,0,476,0.6,1,3658,4.3,0,62,0.1,1,20518,76.1,1,3.7,1,89974,1,0,0
%C3%98rkenoy,/biz/%C3%B8rkenoy-chicago?osq=Restaurants,60647,248,0.141572382,4.8,41.91367251,-87.71155014,"1757 N Kimball Ave  Fl 1  Chicago, IL 60647  Wabansia Ave & Bloomingdale Ave  Humboldt Park",-,58385,68.2,1,5701,6.7,0,476,0.6,1,3658,4.3,0,62,0.1,1,20518,76.1,1,3.7,1,89974,1,0,0
Caribella,/biz/caribella-chicago-2?osq=Restaurants,60647,248,0.10557802,4.4,41.9245471,-87.7109482,"3311 W Fullerton Ave, Chicago, IL 60647, United States",ChIJKz11Xm7ND4gRtzSyc7GJvgg,58385,68.2,1,5701,6.7,0,476,0.6,1,3658,4.3,0,62,0.1,1,20518,76.1,1,3.7,1,89974,1,0,0
Penumbra,/biz/penumbra-chicago?osq=Restaurants,60647,248,0.30331192,4.8,41.9245323,-87.710911,"3309 W Fullerton Ave, Chicago, IL 60647, United States",ChIJyW6MXm7ND4gRmsOMtUD27mM,58385,68.2,1,5701,6.7,0,476,0.6,1,3658,4.3,0,62,0.1,1,20518,76.1,1,3.7,1,89974,1,0,0
Take a Bao Eats,/biz/take-a-bao-eats-chicago-2?osq=Restaurants,60618,177,0.008732199,4.9,41.9455448,-87.7095432,"3517 N Spaulding Ave, Chicago, IL 60618, United States",ChIJw6AG6TjND4gR3jw3RnSYyuw,62235,65.5,1,2661,2.8,0,199,0.2,0,6151,6.5,0,154,0.2,1,13382,65.7,1,4.8,1,91650,1,0,0
CheSa's Bistro & Bar,/biz/chesa-s-bistro-and-bar-chicago?osq=Restaurants,60618,177,0.013627563,3.9,41.9461042,-87.7094673,"3235 W Addison St Suite C, Chicago, IL 60618, United States",ChIJDzQ_gSnND4gRuvU3kEx1hx0,62235,65.5,1,2661,2.8,0,199,0.2,0,6151,6.5,0,154,0.2,1,13382,65.7,1,4.8,1,91650,1,0,0
Way Out,/biz/way-out-chicago?osq=Restaurants,60617,75,0.140980739,4.6,41.9171625,-87.707679,"3213 W Armitage Ave, Chicago, IL 60647, United States",ChIJMe5LOUjND4gR_cnwFCqxVwI,22859,27.2,0,45084,53.5,1,488,0.6,1,254,0.3,0,0,0,0,2151,20.8,0,12.2,1,46156,0,0,0
The Moonlighter,/biz/the-moonlighter-chicago?osq=Restaurants,60647,248,0.124158868,4,41.9177332,-87.7073447,"3204 W Armitage Ave, Chicago, IL 60647, United States",ChIJhRvjCWjND4gRYhDCdkv3FwI,58385,68.2,1,5701,6.7,0,476,0.6,1,3658,4.3,0,62,0.1,1,20518,76.1,1,3.7,1,89974,1,0,0
Longman & Eagle,/biz/longman-and-eagle-chicago?osq=Restaurants,60647,248,0.149318578,4.1,41.9300848,-87.7072401,"2657 N Kedzie Ave, Chicago, IL 60647, United States",ChIJz29MdHrND4gR5pq83uUZbVo,58385,68.2,1,5701,6.7,0,476,0.6,1,3658,4.3,0,62,0.1,1,20518,76.1,1,3.7,1,89974,1,0,0
Scofflaw,/biz/scofflaw-chicago?osq=Restaurants,60647,248,0.162698603,4.3,41.9172811,-87.7072036,"3201 W Armitage Ave, Chicago, IL 60647, United States",ChIJYcVJ42fND4gRrlDhumAWX5Q,58385,68.2,1,5701,6.7,0,476,0.6,1,3658,4.3,0,62,0.1,1,20518,76.1,1,3.7,1,89974,1,0,0
ArePA George,/biz/arepa-george-chicago?osq=Restaurants,60651,38,0.064460841,4.5,41.9097202,-87.7071873,"1552 N Kedzie Ave, Chicago, IL 60651, United States",ChIJh5mjMlvND4gRxV26oS6For8,12721,19.7,0,35016,54.2,1,466,0.7,1,233,0.4,0,0,0,0,2067,21.1,0,10.3,1,44549,0,0,0
Big kids,/biz/big-kids-chicago?osq=Restaurants,60647,248,0.077208287,4.1,41.9278168,-87.706826,"2545 N Kedzie Blvd, Chicago, IL 60647, United States",ChIJrcreBfbND4gRP9URJHdSKF0,58385,68.2,1,5701,6.7,0,476,0.6,1,3658,4.3,0,62,0.1,1,20518,76.1,1,3.7,1,89974,1,0,1
Lula Cafe,/biz/lula-cafe-chicago-3?osq=Restaurants,60647,248,0.170573159,4.3,41.9276583,-87.7067917,"2537 N Kedzie Blvd, Chicago, IL 60647, United States",ChIJ-7r5qHrND4gRgmIpiTEL5Nk,58385,68.2,1,5701,6.7,0,476,0.6,1,3658,4.3,0,62,0.1,1,20518,76.1,1,3.7,1,89974,1,0,1
The Duplex,/biz/the-duplex-chicago?osq=Restaurants,60647,248,0.158179523,4.1,41.927701,-87.7063979,"3137 W Logan Blvd, Chicago, IL 60647, United States",ChIJPbAur-3ND4gRxHGvh-IIiP4,58385,68.2,1,5701,6.7,0,476,0.6,1,3658,4.3,0,62,0.1,1,20518,76.1,1,3.7,1,89974,1,0,1
pig & fire,/biz/pig-and-fire-chicago?osq=Restaurants,60612,65,0.022134746,4.1,41.8840448,-87.7056915,"135 N Kedzie Ave, Chicago, IL 60612, United States",ChIJ5T_XjFAzDogRyP6p8VHYDBk,9611,28.3,0,18830,55.5,1,51,0.2,0,1578,4.7,0,0,0,0,3835,57.5,1,10.8,1,52126,0,1,0
Beyond Rice,/biz/beyond-rice-chicago-2?osq=Restaurants,60612,65,0.120935556,4.9,41.8835639,-87.7052495,"135 N Kedzie Ave, Chicago, IL 60612, United States",ChIJ6QgiziktDogRUESUtdvaUSo,9611,28.3,0,18830,55.5,1,51,0.2,0,1578,4.7,0,0,0,0,3835,57.5,1,10.8,1,52126,0,1,0
Andros Taverna,/biz/andros-taverna-chicago-2?osq=Restaurants,60647,248,0.19832912,4.3,41.9273609,-87.7048376,"2542 N Milwaukee Ave, Chicago, IL 60647, United States",ChIJWfaiPh_ND4gRaRT5k6Wp24g,58385,68.2,1,5701,6.7,0,476,0.6,1,3658,4.3,0,62,0.1,1,20518,76.1,1,3.7,1,89974,1,0,1
The Crab Pad,/biz/the-crab-pad-chicago?osq=Restaurants,60647,248,0.126287839,4.3,41.9274677,-87.7043615,"2529 N Milwaukee Ave #1, Chicago, IL 60647, United States",ChIJZSeoJHvND4gRtDyn2QI4BoE,58385,68.2,1,5701,6.7,0,476,0.6,1,3658,4.3,0,62,0.1,1,20518,76.1,1,3.7,1,89974,1,0,1
BiXi Beer,/biz/bixi-beer-chicago-8?osq=Restaurants,60647,248,0.130705036,4,41.9271363,-87.7040271,"2515 N Milwaukee Ave, Chicago, IL 60647, United States",ChIJhZ_VvszND4gRFEuWpyjRfzo,58385,68.2,1,5701,6.7,0,476,0.6,1,3658,4.3,0,62,0.1,1,20518,76.1,1,3.7,1,89974,1,0,1
Honey Butter Fried Chicken,/biz/honey-butter-fried-chicken-chicago?osq=Restaurants,60618,177,0.013169559,3.9,41.9426735,-87.7027446,"3361 N Elston Ave, Chicago, IL 60618, United States",ChIJjY-YH4TND4gRejy9ljMXvBc,62235,65.5,1,2661,2.8,0,199,0.2,0,6151,6.5,0,154,0.2,1,13382,65.7,1,4.8,1,91650,1,0,0
NoodleBird At Fat Rice,/biz/noodlebird-at-fat-rice-chicago?osq=Restaurants,60647,248,0.197987701,4.4,41.9319516,-87.7023611,"2957 W Diversey Ave, Chicago, IL 60647, United States",ChIJFbsBrX7ND4gRst7Az9YYp_Y,58385,68.2,1,5701,6.7,0,476,0.6,1,3658,4.3,0,62,0.1,1,20518,76.1,1,3.7,1,89974,1,0,0
TriBecca's Sandwich Shop,/biz/tribecca-s-sandwich-shop-chicago?osq=Restaurants,60618,177,0.004402303,4.6,41.9392634,-87.7022326,"2949 W Belmont Ave, Chicago, IL 60618, United States",ChIJNW8R2wXND4gRmXqQqmY_iLc,62235,65.5,1,2661,2.8,0,199,0.2,0,6151,6.5,0,154,0.2,1,13382,65.7,1,4.8,1,91650,1,0,0
Humboldt Haus Sandwich Bar,/biz/humboldt-haus-sandwich-bar-chicago-2?osq=Restaurants,60647,248,0.133862007,4.3,41.9103611,-87.7013583,"2958 W North Ave, Chicago, IL 60647, United States",ChIJIaf7P1nND4gR5xGbLEmSj44,58385,68.2,1,5701,6.7,0,476,0.6,1,3658,4.3,0,62,0.1,1,20518,76.1,1,3.7,1,89974,1,0,0
The Whale Chicago,/biz/the-whale-chicago-chicago?osq=Restaurants,60647,248,0.33536236,4.2,41.9254936,-87.701291,"2427 N Milwaukee Ave, Chicago, IL 60647, United States",ChIJDZNgCZHND4gRP3VyXXbfYhY,58385,68.2,1,5701,6.7,0,476,0.6,1,3658,4.3,0,62,0.1,1,20518,76.1,1,3.7,1,89974,1,0,1
The Welcome Back Lounge,/biz/the-welcome-back-lounge-chicago?osq=Restaurants,60647,248,0.221736877,4.5,41.925347,-87.7011293,"2423 N Milwaukee Ave, Chicago, IL 60647, United States",ChIJmWUqQG_ND4gRndPJ8Mg7IeE,58385,68.2,1,5701,6.7,0,476,0.6,1,3658,4.3,0,62,0.1,1,20518,76.1,1,3.7,1,89974,1,0,1
Daisies,/biz/daisies-chicago?osq=Restaurants,60647,248,0.185272073,4.4,41.924432,-87.6996487,"2375 N Milwaukee Ave, Chicago, IL 60647, United States",ChIJMbRTOnvND4gRrup6n88Rwa4,58385,68.2,1,5701,6.7,0,476,0.6,1,3658,4.3,0,62,0.1,1,20518,76.1,1,3.7,1,89974,1,0,1
Bungalow by Middle Brow,/biz/bungalow-by-middle-brow-chicago?osq=Restaurants,60647,248,0.161936236,4,41.9177843,-87.6988914,"2840 W Armitage Ave, Chicago, IL 60647, United States",ChIJk08hQGDND4gRF127czm-cpc,58385,68.2,1,5701,6.7,0,476,0.6,1,3658,4.3,0,62,0.1,1,20518,76.1,1,3.7,1,89974,1,0,0
Three Wheels Noodle,/biz/three-wheels-noodle-chicago?osq=Restaurants,60647,248,0.126344778,4.6,41.9237942,-87.6985973,"2339 N Milwaukee Ave, Chicago, IL 60647, United States",ChIJZeIRbCzND4gRsFhKfvphUR0,58385,68.2,1,5701,6.7,0,476,0.6,1,3658,4.3,0,62,0.1,1,20518,76.1,1,3.7,1,89974,1,0,1
Mi Tocaya Antojeria,/biz/mi-tocaya-antojeria-chicago?osq=Restaurants,60647,248,0.136720517,3.9,41.9288865,-87.6976843,"2800 W Logan Blvd, Chicago, IL 60647, United States",ChIJ3SXSgX3ND4gR4fD_C6KhXEU,58385,68.2,1,5701,6.7,0,476,0.6,1,3658,4.3,0,62,0.1,1,20518,76.1,1,3.7,1,89974,1,0,0
Testaccio,/biz/testaccio-chicago?osq=Restaurants,60647,248,0.204397884,4.2,41.9265223,-87.6975964,"2456 N California Ave, Chicago, IL 60647, United States",ChIJ4wYqV1jND4gREHq7dk7TvmI,58385,68.2,1,5701,6.7,0,476,0.6,1,3658,4.3,0,62,0.1,1,20518,76.1,1,3.7,1,89974,1,0,1
Lardon,/biz/lardon-chicago?osq=Restaurants,60647,248,0.163145714,4.2,41.9218011,-87.6974863,"2200 N California Ave, Chicago, IL 60647, United States",ChIJl-f454LND4gRm6Yh8yUYw_c,58385,68.2,1,5701,6.7,0,476,0.6,1,3658,4.3,0,62,0.1,1,20518,76.1,1,3.7,1,89974,1,0,0
Spilt Milk,/biz/spilt-milk-chicago-5?osq=Restaurants,60647,248,0.06338745,3.8,41.9250007,-87.6973113,"2758 W Fullerton Ave, Chicago, IL 60647, United States",ChIJAbLSZp3SD4gRfZUdo9D0B5w,58385,68.2,1,5701,6.7,0,476,0.6,1,3658,4.3,0,62,0.1,1,20518,76.1,1,3.7,1,89974,1,0,1
Offset BBQ,/biz/offset-bbq-chicago-2?osq=Restaurants,60647,248,0.144834151,4.8,41.9127987,-87.6972256,"1720 N California Ave, Chicago, IL 60647, United States",ChIJQe0xnx3TD4gRNkBizZkNz0Y,58385,68.2,1,5701,6.7,0,476,0.6,1,3658,4.3,0,62,0.1,1,20518,76.1,1,3.7,1,89974,1,0,0
La Boulangerie & Co - California,/biz/la-boulangerie-and-co-california-chicago?osq=Restaurants,60622,218,0.055629298,4.8,41.8985505,-87.6971356,"936 N California Ave, Chicago, IL 60622, United States",ChIJKTDBrcvTD4gRwSiWnviqF0Q,41086,75.2,1,3868,7.1,0,32,0.1,0,2794,5.1,0,50,0.1,1,18379,85,1,3.1,0,110694,1,0,0
Lonesome Rose,/biz/lonesome-rose-chicago?osq=Restaurants,60647,248,0.149042779,4,41.919642,-87.6971187,"2101 N California Ave, Chicago, IL 60647, United States",ChIJM8R4JZ7SD4gRUacn4EYFh4I,58385,68.2,1,5701,6.7,0,476,0.6,1,3658,4.3,0,62,0.1,1,20518,76.1,1,3.7,1,89974,1,0,0
Spinning J Bakery and Soda Fountain,/biz/spinning-j-bakery-and-soda-fountain-chicago-4?osq=Restaurants,60622,218,0.036391166,4.2,41.8993891,-87.6969846,"1000 N California Ave, Chicago, IL 60622, United States",ChIJx3IBfKrSD4gRxX9ucld95J8,41086,75.2,1,3868,7.1,0,32,0.1,0,2794,5.1,0,50,0.1,1,18379,85,1,3.1,0,110694,1,0,0
Feed,/biz/feed-chicago?osq=Restaurants,60622,218,0.090142436,3.9,41.8955276,-87.6969153,"2803 W Chicago Ave, Chicago, IL 60622, United States",ChIJIVSzXFUtDogR3o1e-VabLIM,41086,75.2,1,3868,7.1,0,32,0.1,0,2794,5.1,0,50,0.1,1,18379,85,1,3.1,0,110694,1,0,0
Aztec Dave's Cantina,/biz/aztec-daves-cantina-chicago?osq=Restaurants,60622,218,0.099909392,4,41.9023892,-87.69664,"1143 N California Ave, Chicago, IL 60622, United States",ChIJIR1c2pbTD4gRTMQ77gc27y0,41086,75.2,1,3868,7.1,0,32,0.1,0,2794,5.1,0,50,0.1,1,18379,85,1,3.1,0,110694,1,0,0
Lucy's,/biz/lucys-chicago?osq=Restaurants,60622,218,0.136126342,3.9,41.90056,-87.696609,"1043 N California Ave, Chicago, IL 60622, United States",ChIJa3ZXUebTD4gRFH_hCD_gjUc,41086,75.2,1,3868,7.1,0,32,0.1,0,2794,5.1,0,50,0.1,1,18379,85,1,3.1,0,110694,1,0,0
Segnatore,/biz/segnatore-chicago?osq=Restaurants,60622,218,0.160365838,4.4,41.8994331,-87.6964952,"1001 N California Ave, Chicago, IL 60622, United States",ChIJt7hkONDTD4gR-22ySCkMKes,41086,75.2,1,3868,7.1,0,32,0.1,0,2794,5.1,0,50,0.1,1,18379,85,1,3.1,0,110694,1,0,0
DeBorincuba,/biz/deborincuba-chicago?osq=Restaurants,60647,248,0.048354047,5,41.92468,-87.6960542,"2727 W Fullerton Ave, Chicago, IL 60647, United States",ChIJgyTOE53SD4gR9WcJpYFEoUk,58385,68.2,1,5701,6.7,0,476,0.6,1,3658,4.3,0,62,0.1,1,20518,76.1,1,3.7,1,89974,1,0,1
"Table, Donkey and Stick",/biz/table-donkey-and-stick-chicago?osq=Restaurants,60647,248,0.13612524,4.1,41.9176412,-87.6959996,"2728 W Armitage Ave, Chicago, IL 60647, United States",ChIJYYXflZ_SD4gRpoX6OwpnE-c,58385,68.2,1,5701,6.7,0,476,0.6,1,3658,4.3,0,62,0.1,1,20518,76.1,1,3.7,1,89974,1,0,0
Heritage Restaurant & Caviar Bar,/biz/heritage-restaurant-and-caviar-bar-chicago?osq=Restaurants,60622,218,0.065086467,4.5,41.8959557,-87.6944326,"2700 W Chicago Ave, Chicago, IL 60622, United States",ChIJLxD1z1QtDogRvzXqEIWMT3k,41086,75.2,1,3868,7.1,0,32,0.1,0,2794,5.1,0,50,0.1,1,18379,85,1,3.1,0,110694,1,0,0
The Green Post,/biz/the-green-post-chicago-3?osq=Restaurants,60625,149,0.049778222,3.6,41.9682016,-87.69353,"4749 N Rockwell St, Chicago, IL 60625, United States",ChIJUcEb0WDTD4gRUTnolRQ7BbA,46060,57.6,1,3951,4.9,0,696,0.9,1,10277,12.8,1,0,0,0,10369,63.1,1,6.5,1,76088,1,0,0
Serai,/biz/serai-chicago?osq=Restaurants,60647,248,0.141397637,4.2,41.9206769,-87.6934715,"2169 N Milwaukee Ave, Chicago, IL 60647, United States",ChIJuREsu57SD4gRZHGu-Dfx7h4,58385,68.2,1,5701,6.7,0,476,0.6,1,3658,4.3,0,62,0.1,1,20518,76.1,1,3.7,1,89974,1,0,0
1492 Cuban Fusion,/biz/1492-cuban-fusion-chicago-2?osq=Restaurants,60647,248,0.0785359,4.5,41.9100009,-87.6927778,"2615 W North Ave, Chicago, IL 60647, United States",ChIJrx5YnqbSD4gRrse1l6TO9bA,58385,68.2,1,5701,6.7,0,476,0.6,1,3658,4.3,0,62,0.1,1,20518,76.1,1,3.7,1,89974,1,0,0
Janellie's Kitchen,/biz/janellie-s-kitchen-chicago-2?osq=Restaurants,60622,218,0.008787004,5,41.9028144,-87.6926588,"2617 W Division St, Chicago, IL 60622, United States",ChIJ9RTWssHTD4gRd0UW5nQhsRo,41086,75.2,1,3868,7.1,0,32,0.1,0,2794,5.1,0,50,0.1,1,18379,85,1,3.1,0,110694,1,0,0
Nomonomo Japanese Pub & Grill,/biz/nomonomo-japanese-pub-and-grill-chicago?osq=Restaurants,60647,248,0.137741157,3.8,41.9196107,-87.691718,"2115 N Milwaukee Ave, Chicago, IL 60647, United States",ChIJPwqYH0DTD4gR_BDbTJQ4utk,58385,68.2,1,5701,6.7,0,476,0.6,1,3658,4.3,0,62,0.1,1,20518,76.1,1,3.7,1,89974,1,0,0
Ramen Wasabi,/biz/ramen-wasabi-chicago?osq=Restaurants,60647,248,0.067110201,4.2,41.9195055,-87.6915138,"2101 N Milwaukee Ave, Chicago, IL 60647, United States",ChIJIT5jIXvND4gRunkwh8rVoq8,58385,68.2,1,5701,6.7,0,476,0.6,1,3658,4.3,0,62,0.1,1,20518,76.1,1,3.7,1,89974,1,0,0
B%C3%A1rbaro Taquer%C3%ADa,/biz/b%C3%A1rbaro-taquer%C3%ADa-chicago?osq=Restaurants,60647,248,0.166240839,4.6,41.91012947,-87.6907523,"2525 W North Ave  Chicago, IL 60647  Campbell Ave & Maplewood Ave  West Town, Humboldt Park",-,58385,68.2,1,5701,6.7,0,476,0.6,1,3658,4.3,0,62,0.1,1,20518,76.1,1,3.7,1,89974,1,0,0
Shokolad,/biz/shokolad-chicago?osq=Restaurants,60612,65,0.013165251,4.5,41.8958547,-87.6904327,"2524 W Chicago Ave, Chicago, IL 60622, United States",ChIJHao_JlMtDogRXh-oorEUqIc,9611,28.3,0,18830,55.5,1,51,0.2,0,1578,4.7,0,0,0,0,3835,57.5,1,10.8,1,52126,0,1,0
Ky%C5%8Dten,/biz/ky%C5%8Dten-chicago?osq=Restaurants,60647,248,0.013472958,4.7,41.91765706,-87.69019802,"2507 W Armitage Ave  Chicago, IL 60647  Campbell Ave & Bingham St  Logan Square",-,58385,68.2,1,5701,6.7,0,476,0.6,1,3658,4.3,0,62,0.1,1,20518,76.1,1,3.7,1,89974,1,0,1
Bulerias Tapas Bar,/biz/bulerias-tapas-bar-chicago-3?osq=Restaurants,60647,248,0.123315019,4.3,41.9100392,-87.6900307,"2507 W North Ave Floor 3, Chicago, IL 60647, United States",ChIJpVT4j07SD4gRzYLvwHOLWyQ,58385,68.2,1,5701,6.7,0,476,0.6,1,3658,4.3,0,62,0.1,1,20518,76.1,1,3.7,1,89974,1,0,0
Split-Rail,/biz/split-rail-chicago?osq=Restaurants,60622,218,0.229671692,4.3,41.8959317,-87.6895912,"2500 W Chicago Ave, Chicago, IL 60622, United States",ChIJj90Z0FItDogRSHAXnID2wa4,41086,75.2,1,3868,7.1,0,32,0.1,0,2794,5.1,0,50,0.1,1,18379,85,1,3.1,0,110694,1,0,0
Wonder Chop,/biz/wonder-chop-chicago?osq=Restaurants,60647,248,0.141375681,4.9,41.9250505,-87.6884298,"2418 W Fullerton Ave, Chicago, IL 60647, United States",ChIJjddgUxfTD4gRbtUMTdmlxVQ,58385,68.2,1,5701,6.7,0,476,0.6,1,3658,4.3,0,62,0.1,1,20518,76.1,1,3.7,1,89974,1,0,0
Owen & Engine,/biz/owen-and-engine-chicago?osq=Restaurants,60647,248,0.123594213,4.2,41.9304566,-87.688069,"2700 N Western Ave, Chicago, IL 60647, United States",ChIJ108V8IXSD4gR8nvbsOYznwY,58385,68.2,1,5701,6.7,0,476,0.6,1,3658,4.3,0,62,0.1,1,20518,76.1,1,3.7,1,89974,1,0,0
Snakes & Lattes - Chicago,/biz/snakes-and-lattes-chicago-chicago?osq=Restaurants,60647,248,0.068374892,4.4,41.9173395,-87.6878702,"1965 N Milwaukee Ave, Chicago, IL 60647, United States",ChIJPXWi-7DTD4gRxYoTG-Bbafg,58385,68.2,1,5701,6.7,0,476,0.6,1,3658,4.3,0,62,0.1,1,20518,76.1,1,3.7,1,89974,1,0,1
Taqueria Chingon,/biz/taqueria-chingon-chicago?osq=Restaurants,60647,248,0.073869288,4.3,41.9227137,-87.6878108,"2234 N Western Ave, Chicago, IL 60647, United States",ChIJGwCLytbTD4gR-CelQwGPBvU,58385,68.2,1,5701,6.7,0,476,0.6,1,3658,4.3,0,62,0.1,1,20518,76.1,1,3.7,1,89974,1,0,0
Sweet Rice Asian Kitchen,/biz/sweet-rice-asian-kitchen-chicago?osq=Restaurants,60647,248,0.157568861,4.8,41.9160148,-87.6876581,"1904 N Western Ave, Chicago, IL 60647, United States",ChIJ0eEZbCvTD4gR2tO1ngECS6Y,58385,68.2,1,5701,6.7,0,476,0.6,1,3658,4.3,0,62,0.1,1,20518,76.1,1,3.7,1,89974,1,0,1
Boeufhaus,/biz/boeufhaus-chicago?osq=Restaurants,60622,218,0.161036777,4.3,41.8998562,-87.6872841,"1012 N Western Ave, Chicago, IL 60622, United States",ChIJlSdbcbLSD4gRx8v43uAT3Cc,41086,75.2,1,3868,7.1,0,32,0.1,0,2794,5.1,0,50,0.1,1,18379,85,1,3.1,0,110694,1,0,0
Chef's Special Cocktail Bar,/biz/chef-s-special-cocktail-bar-chicago?osq=Restaurants,60647,248,0.131272336,4.2,41.9217688,-87.6872693,"2165 N Western Ave, Chicago, IL 60647, United States",ChIJb_3mkVfTD4gRIAOWIBcVD7Y,58385,68.2,1,5701,6.7,0,476,0.6,1,3658,4.3,0,62,0.1,1,20518,76.1,1,3.7,1,89974,1,0,0
The Art of Chicken,/biz/the-art-of-chicken-chicago?osq=Restaurants,60647,248,0.089571549,4.3,41.9188014,-87.6872208,"2041 N Western Ave, Chicago, IL 60647, United States",ChIJt5Jgv7jSD4gRGADMgfOI6oY,58385,68.2,1,5701,6.7,0,476,0.6,1,3658,4.3,0,62,0.1,1,20518,76.1,1,3.7,1,89974,1,0,1
Border Taco,/biz/border-taco-chicago-chicago?osq=Restaurants,60622,218,0.035165747,4.4,41.8980236,-87.6871111,"912 N Western Ave, Chicago, IL 60622, United States",ChIJd_lmOp8tDogRiWVkC1xzpb4,41086,75.2,1,3868,7.1,0,32,0.1,0,2794,5.1,0,50,0.1,1,18379,85,1,3.1,0,110694,1,0,0
Le Caf%C3%A9 Station Grill,/biz/le-caf%C3%A9-station-grill-chicago-3?osq=Restaurants,60647,248,0.065868529,4.7,41.9157915,-87.6870453,"1889 N Winnebago Ave, Chicago, IL 60647, United States",ChIJu7Em5mvTD4gRFA3rNWYNTJQ,58385,68.2,1,5701,6.7,0,476,0.6,1,3658,4.3,0,62,0.1,1,20518,76.1,1,3.7,1,89974,1,0,1
Pizza Friendly Pizza,/biz/pizza-friendly-pizza-chicago-2?osq=Restaurants,60622,218,0.028397463,4,41.9004955,-87.6866572,"1039 N Western Ave, Chicago, IL 60622, United States",ChIJm9pCtj7TD4gR232q_lWqvbA,41086,75.2,1,3868,7.1,0,32,0.1,0,2794,5.1,0,50,0.1,1,18379,85,1,3.1,0,110694,1,0,0
Luella's Southern Kitchen,/biz/luellas-southern-kitchen-chicago?osq=Restaurants,60625,149,0.096904246,4.2,41.9651973,-87.6861538,"4609 N Lincoln Ave, Chicago, IL 60625, United States",ChIJU-kDchDSD4gRDWNk-3qo3jA,46060,57.6,1,3951,4.9,0,696,0.9,1,10277,12.8,1,0,0,0,10369,63.1,1,6.5,1,76088,1,0,0
Gather,/biz/gather-chicago?osq=Restaurants,60625,149,0.139851147,4.5,41.9643,-87.685562,"4539 N Lincoln Ave, Chicago, IL 60625, United States",ChIJqS0bXBDSD4gR4DvrWVziKgM,46060,57.6,1,3951,4.9,0,696,0.9,1,10277,12.8,1,0,0,0,10369,63.1,1,6.5,1,76088,1,0,0
Aloha Wagon,/biz/aloha-wagon-chicago?osq=Restaurants,60608,148,0.138829668,4.9,41.8540367,-87.6854898,"2023 S Western Ave, Chicago, IL 60608, United States",ChIJKw9rSHAtDogRl25T5otZURU,59259,82.2,1,2683,3.7,0,94,0.1,0,4833,6.7,0,105,0.1,1,23108,90.9,1,7.5,1,98457,1,1,0
Handlebar,/biz/handlebar-chicago?osq=Restaurants,60647,248,0.146346061,4.1,41.9102486,-87.6852901,"2311 W North Ave, Chicago, IL 60647, United States",ChIJbziTdbvSD4gRqmIgd8IFEIs,58385,68.2,1,5701,6.7,0,476,0.6,1,3658,4.3,0,62,0.1,1,20518,76.1,1,3.7,1,89974,1,0,0
Iraz%C3%BA Costa Rican Restaurant & Catering,/biz/iraz%C3%BA-costa-rican-restaurant-and-catering-chicago-7?osq=Restaurants,60647,248,0.137332986,4.3,41.91568523,-87.68502682,"1865 N Milwaukee Ave  Chicago, IL 60647  Moffat St & Western Ave  Bucktown",-,58385,68.2,1,5701,6.7,0,476,0.6,1,3658,4.3,0,62,0.1,1,20518,76.1,1,3.7,1,89974,1,0,1
Indian Paradise,/biz/indian-paradise-chicago?osq=Restaurants,60647,248,0.121659805,4,41.9102645,-87.6845839,"2257 W North Ave, Chicago, IL 60647, United States",ChIJBUklnLHTD4gRgbXWlrRWGwM,58385,68.2,1,5701,6.7,0,476,0.6,1,3658,4.3,0,62,0.1,1,20518,76.1,1,3.7,1,89974,1,0,0
S & T Steakhouse,/biz/s-and-t-steakhouse-chicago-2?osq=Restaurants,60647,248,0.078800623,4.9,41.9177572,-87.684367,"2246 W Armitage Ave, Chicago, IL 60647, United States",ChIJ_59ExsfTD4gRTzU9rNFYMfg,58385,68.2,1,5701,6.7,0,476,0.6,1,3658,4.3,0,62,0.1,1,20518,76.1,1,3.7,1,89974,1,0,0
The StopAlong,/biz/the-stopalong-chicago?osq=Restaurants,60647,248,0.134779214,4.5,41.914339,-87.6838108,"1812 N Milwaukee Ave, Chicago, IL 60647, United States",ChIJm-Q-yL3SD4gR-xjakd0DHVc,58385,68.2,1,5701,6.7,0,476,0.6,1,3658,4.3,0,62,0.1,1,20518,76.1,1,3.7,1,89974,1,0,1
Cebu,/biz/cebu-chicago?osq=Restaurants,60647,248,0.151895302,4,41.9102908987067,-87.682886032421,"2211 W North Ave, Chicago, IL 60647, United States",ChIJ_S3NjSWZqTMRBzXT2wwDNEw,58385,68.2,1,5701,6.7,0,476,0.6,1,3658,4.3,0,62,0.1,1,20518,76.1,1,3.7,1,89974,1,0,0
Antico,/biz/antico-chicago?osq=Restaurants,60647,248,0.172855783,4.4,41.9174736,-87.6826681,"1946 N Leavitt St, Chicago, IL 60647, United States",ChIJv2NPdZbSD4gRouXPbrFYvHo,58385,68.2,1,5701,6.7,0,476,0.6,1,3658,4.3,0,62,0.1,1,20518,76.1,1,3.7,1,89974,1,0,0
Tryzub Ukrainian Kitchen,/biz/tryzub-ukrainian-kitchen-chicago?osq=Restaurants,60622,218,0.135862637,4.4,41.8956997,-87.6821358,"2201 W Chicago Ave, Chicago, IL 60622, United States",ChIJNeYTT0stDogRMnztBUSpR8Q,41086,75.2,1,3868,7.1,0,32,0.1,0,2794,5.1,0,50,0.1,1,18379,85,1,3.1,0,110694,1,0,0
Enoteca Roma Ristorante,/biz/enoteca-roma-ristorante-chicago?osq=Restaurants,60622,218,0.017818685,3.4,41.903318,-87.681584,"2146 W Division St, Chicago, IL 60622, United States",ChIJqZN58LbSD4gRpJq-3LzUz7c,41086,75.2,1,3868,7.1,0,32,0.1,0,2794,5.1,0,50,0.1,1,18379,85,1,3.1,0,110694,1,0,1
Lost Larson,/biz/lost-larson-chicago-3?osq=Restaurants,60622,218,0.035543701,3.8,41.9032811,-87.6813021,"2140 W Division St, Chicago, IL 60622, United States",ChIJnVtDBNPTD4gREPREkTurrWI,41086,75.2,1,3868,7.1,0,32,0.1,0,2794,5.1,0,50,0.1,1,18379,85,1,3.1,0,110694,1,0,1
Queen Mary Tavern,/biz/queen-mary-tavern-chicago?osq=Restaurants,60622,218,0.134486196,4.5,41.9029715,-87.6807371,"2125 W Division St, Chicago, IL 60622, United States",ChIJQ3h88bbSD4gRpCS8A9UibSs,41086,75.2,1,3868,7.1,0,32,0.1,0,2794,5.1,0,50,0.1,1,18379,85,1,3.1,0,110694,1,0,1
Osteria Rusticana,/biz/osteria-rusticana-chicago-3?osq=Restaurants,60622,218,0.189361321,4.5,41.9033759,-87.6804098,"2114 W Division St, Chicago, IL 60622, United States",ChIJO56ApHfTD4gRs4Vw6CnAyvQ,41086,75.2,1,3868,7.1,0,32,0.1,0,2794,5.1,0,50,0.1,1,18379,85,1,3.1,0,110694,1,0,1
All Together Now,/biz/all-together-now-chicago?osq=Restaurants,60622,218,0.162315799,4.5,41.8956489,-87.6803801,"2119 W Chicago Ave, Chicago, IL 60622, United States",ChIJ7Qc3OPotDogR8D8nAtWvFuw,41086,75.2,1,3868,7.1,0,32,0.1,0,2794,5.1,0,50,0.1,1,18379,85,1,3.1,0,110694,1,0,0
XOchimilco Mexican Restaurant,/biz/xochimilco-mexican-restaurant-chicago?osq=Restaurants,60618,177,0.118543083,4.8,41.9616806,-87.6802639,"2030 W Montrose Ave, Chicago, IL 60618, United States",ChIJiQRer-QtDogRIJbfvRasl3M,62235,65.5,1,2661,2.8,0,199,0.2,0,6151,6.5,0,154,0.2,1,13382,65.7,1,4.8,1,91650,1,0,0
Misano Italia,/biz/misano-italia-chicago?osq=Restaurants,60647,248,0.013645404,4.5,41.9103395,-87.6800513,"2101 W North Ave, Chicago, IL 60647, United States",ChIJZ1BI2rjSD4gR7R0AaIuemEs,58385,68.2,1,5701,6.7,0,476,0.6,1,3658,4.3,0,62,0.1,1,20518,76.1,1,3.7,1,89974,1,0,1
Folklore Argentine Grill,/biz/folklore-argentine-grill-chicago?osq=Restaurants,60622,218,0.15959259,3.9,41.9033221,-87.6798856,"2100 W Division St, Chicago, IL 60622, United States",ChIJcUfdU7bSD4gR5NotOwi6iXk,41086,75.2,1,3868,7.1,0,32,0.1,0,2794,5.1,0,50,0.1,1,18379,85,1,3.1,0,110694,1,0,1
Jack's Wicker Park,/biz/jack-s-wicker-park-chicago?osq=Restaurants,60622,218,0.241446322,4.8,41.9033742,-87.6794939,"2056 W Division St, Chicago, IL 60622, United States",ChIJIyRLCSHTD4gRKkDjQpvSiDY,41086,75.2,1,3868,7.1,0,32,0.1,0,2794,5.1,0,50,0.1,1,18379,85,1,3.1,0,110694,1,0,1
Same Same,/biz/same-same-chicago?osq=Restaurants,60618,177,0.004482071,4.5,41.9433272,-87.6794334,"2022 W Roscoe St, Chicago, IL 60618, United States",ChIJ869BgZ_TD4gRtUbNP7ugj7I,62235,65.5,1,2661,2.8,0,199,0.2,0,6151,6.5,0,154,0.2,1,13382,65.7,1,4.8,1,91650,1,0,0
Irene's,/biz/irenes-chicago?osq=Restaurants,60618,177,0.123082279,4.8,41.9544611954916,-87.6794098459139,"2012 Irving Park Rd, Chicago, IL 60618, United States",ChIJTb3w16gzDogRqBjZBa1dEX8,62235,65.5,1,2661,2.8,0,199,0.2,0,6151,6.5,0,154,0.2,1,13382,65.7,1,4.8,1,91650,1,0,0
Silli Kori,/biz/silli-kori-chicago?osq=Restaurants,60622,218,0.192241092,4.3,41.9029988,-87.6793423,"2053 W Division St, Chicago, IL 60622, United States",ChIJ_QijSLbSD4gR8_o2ZnmPcoI,41086,75.2,1,3868,7.1,0,32,0.1,0,2794,5.1,0,50,0.1,1,18379,85,1,3.1,0,110694,1,0,1
Bourbon On Division,/biz/bourbon-on-division-chicago?osq=Restaurants,60622,218,0.01311006,4.7,41.903304,-87.6792116,"2050 W Division St, Chicago, IL 60622, United States",ChIJw053SbbSD4gRd9c6vsBfXKY,41086,75.2,1,3868,7.1,0,32,0.1,0,2794,5.1,0,50,0.1,1,18379,85,1,3.1,0,110694,1,0,1
Typica Cafe,/biz/typica-cafe-chicago?osq=Restaurants,60622,218,0.048355173,4.9,41.9034294,-87.6786393,"2034 W Division St, Chicago, IL 60622, United States",ChIJJX0lnU7TD4gR6cHhC0yyqWM,41086,75.2,1,3868,7.1,0,32,0.1,0,2794,5.1,0,50,0.1,1,18379,85,1,3.1,0,110694,1,0,1
The Reveler,/biz/the-reveler-chicago-3?osq=Restaurants,60657,233,0.017746931,3.6,41.9434142,-87.6782928,"3403 N Damen Ave, Chicago, IL 60657, United States",ChIJ9QhNWp3TD4gRk4s5h0Xo6fo,59259,82.2,1,2683,3.7,0,94,0.1,0,4833,6.7,0,105,0.1,1,23108,90.9,1,4.2,1,98457,1,0,0
Cafe Robey,/biz/cafe-robey-chicago?osq=Restaurants,60647,248,0.070466538,4.1,41.9106629,-87.6781234,"1600 N Milwaukee Ave, Chicago, IL 60647, United States",ChIJIyYOr7jSD4gRu83hjVtOKbY,58385,68.2,1,5701,6.7,0,476,0.6,1,3658,4.3,0,62,0.1,1,20518,76.1,1,3.7,1,89974,1,0,1
Mindy's Bakery,/biz/mindys-bakery-chicago?osq=Restaurants,60647,248,0.108599456,3.8,41.9110653,-87.6780791,"1623 N Milwaukee Ave, Chicago, IL 60647, United States",ChIJt1O5fcDSD4gRzHeLexQYwtU,58385,68.2,1,5701,6.7,0,476,0.6,1,3658,4.3,0,62,0.1,1,20518,76.1,1,3.7,1,89974,1,0,1
The Royal Grocer & Co,/biz/the-royal-grocer-and-co-chicago?osq=Restaurants,60647,248,0.058541091,3.9,41.9201776,-87.6779664,"2118 N Damen Ave, Chicago, IL 60647, United States",ChIJy86Ds5TSD4gRZdKqGsbBmSI,58385,68.2,1,5701,6.7,0,476,0.6,1,3658,4.3,0,62,0.1,1,20518,76.1,1,3.7,1,89974,1,0,0
Lao Peng You,/biz/lao-peng-you-chicago?osq=Restaurants,60622,218,0.133656305,4.2,41.8960754,-87.6778955,"2020 W Chicago Ave, Chicago, IL 60622, United States",ChIJOxXGyFAtDogR7u-PLnGpdPM,41086,75.2,1,3868,7.1,0,32,0.1,0,2794,5.1,0,50,0.1,1,18379,85,1,3.1,0,110694,1,0,0
Pompette,/biz/pompette-chicago?osq=Restaurants,60647,248,0.204835636,4.5,41.9176221,-87.6778639,"1960 N Damen Ave, Chicago, IL 60647, United States",ChIJvyHyjRTTD4gRnHvm6k_Pr7M,58385,68.2,1,5701,6.7,0,476,0.6,1,3658,4.3,0,62,0.1,1,20518,76.1,1,3.7,1,89974,1,0,0
Cafe Istanbul,/biz/cafe-istanbul-chicago-4?osq=Restaurants,60622,218,0.181152516,4.4,41.9033821,-87.6778355,"2014 W Division St, Chicago, IL 60622, United States",ChIJIXYAKrbSD4gRBMZqWy9PYis,41086,75.2,1,3868,7.1,0,32,0.1,0,2794,5.1,0,50,0.1,1,18379,85,1,3.1,0,110694,1,0,1
Le Bouchon,/biz/le-bouchon-chicago?osq=Restaurants,60647,248,0.14356371,3.9,41.9175649,-87.6777625,"1958 N Damen Ave, Chicago, IL 60647, United States",ChIJ7fdpy-rSD4gRTm_qSNIS0mg,58385,68.2,1,5701,6.7,0,476,0.6,1,3658,4.3,0,62,0.1,1,20518,76.1,1,3.7,1,89974,1,0,0
CLAUDIA,/biz/claudia-chicago?osq=Restaurants,60647,248,0.134786869,4.1,41.9174524,-87.6777605,"1952 N Damen Ave, Chicago, IL 60647, United States",ChIJofcbtUgtDogRuRPgFNiZIUk,58385,68.2,1,5701,6.7,0,476,0.6,1,3658,4.3,0,62,0.1,1,20518,76.1,1,3.7,1,89974,1,0,0
Basant Modern Indian,/biz/basant-modern-indian-chicago-2?osq=Restaurants,60613,126,0.126001453,4.7,41.9521913,-87.6777554,"1939 W Byron St, Chicago, IL 60613, United States",ChIJB83QHq_TD4gRY5x-c5OBu_M,41222,77.4,1,3146,5.9,0,160,0.3,0,4651,8.7,1,7,0,0,14545,86.4,1,4.1,1,88267,1,1,0
Urbanbelly,/biz/urbanbelly-chicago-26?osq=Restaurants,60622,218,0.154342812,4,41.9094907,-87.677595,"1542 N Damen Ave, Chicago, IL 60622, United States",ChIJF5VonrjSD4gRBgGbmXf3hWU,41086,75.2,1,3868,7.1,0,32,0.1,0,2794,5.1,0,50,0.1,1,18379,85,1,3.1,0,110694,1,0,1
Dove's Luncheonette,/biz/doves-luncheonette-chicago?osq=Restaurants,60622,218,0.204357983,4.2,41.9094982,-87.6772701,"1545 N Damen Ave, Chicago, IL 60622, United States",ChIJDerFZ8fSD4gRoovcMNvO8hU,41086,75.2,1,3868,7.1,0,32,0.1,0,2794,5.1,0,50,0.1,1,18379,85,1,3.1,0,110694,1,0,1
Little Wok Wicker Park,/biz/little-wok-wicker-park-chicago?osq=Restaurants,60622,218,0.199326151,3.8,41.9033751,-87.676954,"1950 W Division St, Chicago, IL 60622, United States",ChIJXegUymrTD4gRZd5LYkvw4Ec,41086,75.2,1,3868,7.1,0,32,0.1,0,2794,5.1,0,50,0.1,1,18379,85,1,3.1,0,110694,1,0,1
Cheba Hut Toasted Subs,/biz/cheba-hut-toasted-subs-chicago-7?osq=Restaurants,60622,218,0.13150125,4.5,41.9033783,-87.6767699,"1948 W Division St, Chicago, IL 60622, United States",ChIJ-SU0pWfTD4gRemlEo3Z6MtQ,41086,75.2,1,3868,7.1,0,32,0.1,0,2794,5.1,0,50,0.1,1,18379,85,1,3.1,0,110694,1,0,1
Casa Tequila,/biz/casa-tequila-chicago?osq=Restaurants,60622,218,0.251193777,3.4,41.9030564,-87.6767384,"1949 W Division St, Chicago, IL 60622, United States",ChIJo-2pA_LTD4gRC9EYpBHjQD0,41086,75.2,1,3868,7.1,0,32,0.1,0,2794,5.1,0,50,0.1,1,18379,85,1,3.1,0,110694,1,0,1
Taxim,/biz/taxim-chicago?osq=Restaurants,60622,218,0.017544996,3.8,41.9097199,-87.6766851,"1558 N Milwaukee Ave, Chicago, IL 60622, United States",ChIJj9-UasfSD4gRafgxp0S5YlQ,41086,75.2,1,3868,7.1,0,32,0.1,0,2794,5.1,0,50,0.1,1,18379,85,1,3.1,0,110694,1,0,1
Bloom Plant Based Kitchen,/biz/bloom-plant-based-kitchen-chicago?osq=Restaurants,60622,218,0.141251208,4.4,41.9099039,-87.6764488,"1559 N Milwaukee Ave, Chicago, IL 60622, United States",ChIJsVsK4J3TD4gRc925DzRAzhI,41086,75.2,1,3868,7.1,0,32,0.1,0,2794,5.1,0,50,0.1,1,18379,85,1,3.1,0,110694,1,0,1
Sea & Olive - CLOSED,/biz/sea-and-olive-chicago?osq=Restaurants,60622,218,0.046784169,4,41.9033538,-87.6763936,"1938 W Division St, Chicago, IL 60622, United States",ChIJ4bCV89jTD4gRb0AoSPNPwQg,41086,75.2,1,3868,7.1,0,32,0.1,0,2794,5.1,0,50,0.1,1,18379,85,1,3.1,0,110694,1,0,1
The Perch,/biz/the-perch-chicago?osq=Restaurants,60622,218,0.471112396,4.4,41.9033912,-87.6762437,"1932 W Division St, Chicago, IL 60622, United States",ChIJh55R6JPTD4gRuBjfent3uh4,41086,75.2,1,3868,7.1,0,32,0.1,0,2794,5.1,0,50,0.1,1,18379,85,1,3.1,0,110694,1,0,1
Rumi Middle Eastern Grill,/biz/rumi-middle-eastern-grill-chicago-2?osq=Restaurants,60622,218,0.086073756,4.5,41.9093142,-87.6760519,"1534 N Milwaukee Ave, Chicago, IL 60622, United States",ChIJxYUmEMfSD4gRVxg0PUdJV20,41086,75.2,1,3868,7.1,0,32,0.1,0,2794,5.1,0,50,0.1,1,18379,85,1,3.1,0,110694,1,0,1
Salt Burgers + Fries,/biz/salt-burgers-fries-chicago?osq=Restaurants,60622,218,0.087679483,4.1,41.9106162,-87.6759778,"1920 W North Ave, Chicago, IL 60622, United States",ChIJRWtUROzTD4gRtQh9dcEbKLI,41086,75.2,1,3868,7.1,0,32,0.1,0,2794,5.1,0,50,0.1,1,18379,85,1,3.1,0,110694,1,0,1
Soul%C3%A9,/biz/soul%C3%A9-chicago-2?osq=Restaurants,60622,218,0.129297532,3.8,41.89590935,-87.675822,"1931 W Chicago Ave  Chicago, IL 60622  Damen Ave & Wolcott Ave  Ukrainian Village, West Town",-,41086,75.2,1,3868,7.1,0,32,0.1,0,2794,5.1,0,50,0.1,1,18379,85,1,3.1,0,110694,1,0,0
The Tamale Lady,/biz/the-tamale-lady-chicago?osq=Restaurants,60608,148,0.027028356,4.4,41.8530255,-87.6757368,"1900-1998, W 21st Pl, Chicago, IL 60608, United States",ChIJaQUb4CEtDogRqhjy9-tYHSc,59259,82.2,1,2683,3.7,0,94,0.1,0,4833,6.7,0,105,0.1,1,23108,90.9,1,7.5,1,98457,1,1,0
Paradise Park,/biz/paradise-park-chicago?osq=Restaurants,60622,218,0.129323487,4,41.9102769,-87.6756623,"1913 W North Ave, Chicago, IL 60622, United States",ChIJAeD_ayzTD4gRahiVg8OYv1Y,41086,75.2,1,3868,7.1,0,32,0.1,0,2794,5.1,0,50,0.1,1,18379,85,1,3.1,0,110694,1,0,1
Kasama,/biz/kasama-chicago?osq=Restaurants,60622,218,0.241506345,4.5,41.899667,-87.6756612,"1001 N Winchester Ave, Chicago, IL 60622, United States",ChIJccHhHs3TD4gRxVcCWUh7-xQ,41086,75.2,1,3868,7.1,0,32,0.1,0,2794,5.1,0,50,0.1,1,18379,85,1,3.1,0,110694,1,0,0
Homestead on the Roof,/biz/homestead-on-the-roof-chicago?osq=Restaurants,60622,218,0.129656358,3.8,41.8961175,-87.675648,"1924 W Chicago Ave, Chicago, IL 60622, United States",ChIJz3R5KzUtDogRKWrvcPaUq6w,41086,75.2,1,3868,7.1,0,32,0.1,0,2794,5.1,0,50,0.1,1,18379,85,1,3.1,0,110694,1,0,0
Amaru,/biz/amaru-chicago?osq=Restaurants,60622,218,0.237948262,4.8,41.9107142,-87.6753953,"1904 W North Ave, Chicago, IL 60622, United States",ChIJk-_u07vTD4gRnxbidpOwF4w,41086,75.2,1,3868,7.1,0,32,0.1,0,2794,5.1,0,50,0.1,1,18379,85,1,3.1,0,110694,1,0,1
Kizuki Ramen & Izakaya,/biz/kizuki-ramen-and-izakaya-chicago?osq=Restaurants,60622,218,0.08642284,3.8,41.9087604,-87.6751855,"1482 N Milwaukee Ave, Chicago, IL 60622, United States",ChIJPc6P_8bSD4gRzvkeDb1Nylw,41086,75.2,1,3868,7.1,0,32,0.1,0,2794,5.1,0,50,0.1,1,18379,85,1,3.1,0,110694,1,0,1
Sushi Taku,/biz/sushi-taku-chicago-2?osq=Restaurants,60622,218,0.094490441,4.2,41.9033911,-87.67512,"1904 W Division St, Chicago, IL 60622, United States",ChIJBaAW_sjSD4gRCG58SxozWDs,41086,75.2,1,3868,7.1,0,32,0.1,0,2794,5.1,0,50,0.1,1,18379,85,1,3.1,0,110694,1,0,1
The Bongo Room,/biz/the-bongo-room-chicago?osq=Restaurants,60622,218,0.017969408,4,41.9085194,-87.6748528,"1470 N Milwaukee Ave, Chicago, IL 60622, United States",ChIJI3njV8bSD4gR2aImx5J3HEg,41086,75.2,1,3868,7.1,0,32,0.1,0,2794,5.1,0,50,0.1,1,18379,85,1,3.1,0,110694,1,0,1
Pasta Bowl - Wicker Park,/biz/pasta-bowl-wicker-park-chicago?osq=Restaurants,60622,218,0.026330613,4.2,41.910708,-87.6746816,"1852 W North Ave, Chicago, IL 60622, United States",ChIJx4lHzsbSD4gR-uecJquN9ik,41086,75.2,1,3868,7.1,0,32,0.1,0,2794,5.1,0,50,0.1,1,18379,85,1,3.1,0,110694,1,0,1
En Hakkore 2,/biz/en-hakkore-2-0-chicago-15?osq=Restaurants,60622,218,0.184579783,4.6,41.9085884,-87.67443,"1467 N Milwaukee Ave, Chicago, IL 60622, United States",ChIJSRu99cbSD4gRz_mDVW6zBXQ,41086,75.2,1,3868,7.1,0,32,0.1,0,2794,5.1,0,50,0.1,1,18379,85,1,3.1,0,110694,1,0,1
En Hakkore,/biz/en-hakkore-chicago-10?osq=Restaurants,60647,248,0.145738846,4.5,41.9085884,-87.67443,"1467 N Milwaukee Ave, Chicago, IL 60622, United States",ChIJSRu99cbSD4gRz_mDVW6zBXQ,58385,68.2,1,5701,6.7,0,476,0.6,1,3658,4.3,0,62,0.1,1,20518,76.1,1,3.7,1,89974,1,0,1
etta - Bucktown,/biz/etta-bucktown-chicago?osq=Restaurants,60622,218,0.273090061,4.3,41.9106889,-87.6742363,"1840 W North Ave, Chicago, IL 60622, United States",ChIJ908aKunTD4gRGsTOB-Hmm2Q,41086,75.2,1,3868,7.1,0,32,0.1,0,2794,5.1,0,50,0.1,1,18379,85,1,3.1,0,110694,1,0,1
Machine Engineered Dining & Drink,/biz/machine-engineered-dining-and-drink-chicago?osq=Restaurants,60622,218,0.179385607,4,41.9033805,-87.6739614,"1846 W Division St, Chicago, IL 60622, United States",ChIJ5VKNklbTD4gRD19M84CYMcE,41086,75.2,1,3868,7.1,0,32,0.1,0,2794,5.1,0,50,0.1,1,18379,85,1,3.1,0,110694,1,0,1
Taquizo,/biz/taquizo-chicago?osq=Restaurants,60622,218,0.069740222,3.5,41.9103746,-87.6739316,"1835 W North Ave, Chicago, IL 60622, United States",ChIJAw-GhdHTD4gR-T3GKHfIi2k,41086,75.2,1,3868,7.1,0,32,0.1,0,2794,5.1,0,50,0.1,1,18379,85,1,3.1,0,110694,1,0,1
Parlor Pizza Bar - Wicker Park,/biz/parlor-pizza-bar-wicker-park-chicago-2?osq=Restaurants,60622,218,0.004364427,4.3,41.9033944,-87.6734318,"1824 W Division St, Chicago, IL 60622, United States",ChIJkTo_KMnSD4gR5RcZjQJWO6w,41086,75.2,1,3868,7.1,0,32,0.1,0,2794,5.1,0,50,0.1,1,18379,85,1,3.1,0,110694,1,0,1
Barcocina West Town,/biz/barcocina-west-town-chicago?osq=Restaurants,60622,218,0.212379864,4.9,41.8962465,-87.6729274,"1814 W Chicago Ave, Chicago, IL 60622, United States",ChIJmYEjbcnTD4gRii3W85FQU4A,41086,75.2,1,3868,7.1,0,32,0.1,0,2794,5.1,0,50,0.1,1,18379,85,1,3.1,0,110694,1,0,1
Zenwich X Elite Boba - Wicker Park,/biz/zenwich-x-elite-boba-wicker-park-chicago-4?osq=Restaurants,60622,218,0.160526814,4.4,41.9077159,-87.6728915,"1415 N Milwaukee Ave, Chicago, IL 60622, United States",ChIJN9NsVRXTD4gR9x78Q5dpWCk,41086,75.2,1,3868,7.1,0,32,0.1,0,2794,5.1,0,50,0.1,1,18379,85,1,3.1,0,110694,1,0,1
Ina Mae Tavern & Packaged Goods,/biz/ina-mae-tavern-and-packaged-goods-chicago?osq=Restaurants,60622,218,0.077317753,3.5,41.9076442,-87.6722353,"1415 N Wood St, Chicago, IL 60622, United States",ChIJPRWxdNTTD4gRGBHA7sE-iB8,41086,75.2,1,3868,7.1,0,32,0.1,0,2794,5.1,0,50,0.1,1,18379,85,1,3.1,0,110694,1,0,1
Oiistar,/biz/oiistar-chicago?osq=Restaurants,60622,218,0.180817667,4.2,41.9070765,-87.6721011,"1385 N Milwaukee Ave, Chicago, IL 60622, United States",ChIJrYBs6cXSD4gRLfnvYfRMcOs,41086,75.2,1,3868,7.1,0,32,0.1,0,2794,5.1,0,50,0.1,1,18379,85,1,3.1,0,110694,1,0,1
Tortello,/biz/tortello-chicago?osq=Restaurants,60622,218,0.195525382,4.4,41.9034241,-87.6718642,"1746 W Division St, Chicago, IL 60622, United States",ChIJBW5y387SD4gRCkxbf2J5Erw,41086,75.2,1,3868,7.1,0,32,0.1,0,2794,5.1,0,50,0.1,1,18379,85,1,3.1,0,110694,1,0,1
The Delta,/biz/the-delta-chicago?osq=Restaurants,60622,218,0.161441149,4.3,41.9104634,-87.6718587,"1745 W North Ave, Chicago, IL 60622, United States",ChIJH5KGDcTSD4gRqOXekdQG8x4,41086,75.2,1,3868,7.1,0,32,0.1,0,2794,5.1,0,50,0.1,1,18379,85,1,3.1,0,110694,1,0,1
Wazwan - Chicago,/biz/wazwan-chicago-chicago-2?osq=Restaurants,60607,198,0.201684582,4.5,41.903512,-87.6717396,"1742 W Division St, Chicago, IL 60622, United States",ChIJ6xr8mTktDogR9asBMVGUdt8,16844,56.2,1,3742,12.5,0,107,0.4,0,6724,22.4,1,17,0.1,1,8429,88.1,1,7,1,109634,1,0,1
Forbidden Root,/biz/forbidden-root-chicago?osq=Restaurants,60622,218,0.23380227,4.3,41.896238,-87.671559,"1746 W Chicago Ave, Chicago, IL 60622, United States",ChIJMUhGGqwsDogRzmCX4jRx34o,41086,75.2,1,3868,7.1,0,32,0.1,0,2794,5.1,0,50,0.1,1,18379,85,1,3.1,0,110694,1,0,1
Sushi + Rotary Sushi Bar - Wicker Park,/biz/sushi-rotary-sushi-bar-wicker-park-chicago?osq=Restaurants,60622,218,0.143714621,4.8,41.906231,-87.671394,"1352 N Milwaukee Ave, Chicago, IL 60622, United States",ChIJfxJGIUbTD4gRgclWyCZ0tOA,41086,75.2,1,3868,7.1,0,32,0.1,0,2794,5.1,0,50,0.1,1,18379,85,1,3.1,0,110694,1,0,1
Cracked on Milwaukee,/biz/cracked-on-milwaukee-chicago?osq=Restaurants,60622,218,0.171237906,4.3,41.9066085,-87.6713409,"1359 N Milwaukee Ave, Chicago, IL 60622, United States",ChIJ2wC8lNjTD4gRSnVgOLr552c,41086,75.2,1,3868,7.1,0,32,0.1,0,2794,5.1,0,50,0.1,1,18379,85,1,3.1,0,110694,1,0,1
Goodstuff Eats,/biz/goodstuff-eats-chicago?osq=Restaurants,60622,218,0.018167213,5,41.9082485201879,-87.6710985940398,"1359 N Milwaukee Ave, Chicago, IL 60622, United States",ChIJ-dVskRfID4gRxOq9t2V3YOw,41086,75.2,1,3868,7.1,0,32,0.1,0,2794,5.1,0,50,0.1,1,18379,85,1,3.1,0,110694,1,0,0
Mama Delia,/biz/mama-delia-chicago-2?osq=Restaurants,60622,218,0.126656331,3.6,41.9030013,-87.6708347,"1721 W Division St Ground Floor, Chicago, IL 60622, United States",ChIJLxzB8_XTD4gRkcngO9oXOsM,41086,75.2,1,3868,7.1,0,32,0.1,0,2794,5.1,0,50,0.1,1,18379,85,1,3.1,0,110694,1,0,1
Mk Noodle,/biz/mk-noodle-chicago?osq=Restaurants,60657,233,0.127123577,4.7,41.9427285,-87.6705439,"3341 N Lincoln Ave, Chicago, IL 60657, United States",ChIJd36ADEHTD4gR5FpNyLvTKjo,59259,82.2,1,2683,3.7,0,94,0.1,0,4833,6.7,0,105,0.1,1,23108,90.9,1,4.2,1,98457,1,0,0
JJ Thai Street Food,/biz/jj-thai-street-food-chicago?osq=Restaurants,60622,218,0.159577639,4.3,41.8958101,-87.6704,"1715 W Chicago Ave, Chicago, IL 60622, United States",ChIJRXC74KItDogRS1jY87jf22g,41086,75.2,1,3868,7.1,0,32,0.1,0,2794,5.1,0,50,0.1,1,18379,85,1,3.1,0,110694,1,0,1
Funkenhausen,/biz/funkenhausen-chicago?osq=Restaurants,60622,218,0.17148589,4.4,41.8959093,-87.6702531,"1709 W Chicago Ave, Chicago, IL 60622, United States",ChIJ9_t3DsotDogR2KcUgu8TZQ8,41086,75.2,1,3868,7.1,0,32,0.1,0,2794,5.1,0,50,0.1,1,18379,85,1,3.1,0,110694,1,0,1
Mable's Table,/biz/mables-table-chicago?osq=Restaurants,60622,218,0.161762309,4.4,41.9159869,-87.6698251,"1655 W Cortland St, Chicago, IL 60622, United States",ChIJhxHsgsLSD4gR8rMa2NEwhyo,41086,75.2,1,3868,7.1,0,32,0.1,0,2794,5.1,0,50,0.1,1,18379,85,1,3.1,0,110694,1,0,0
Chengdu Impression - Wicker Park,/biz/chengdu-impression-wicker-park-chicago?osq=Restaurants,60622,218,0.085772348,4.1,41.9052383,-87.6696457,"1300 N Milwaukee Ave, Chicago, IL 60622, United States",ChIJHXNDn_rTD4gR9CCAJM7oweM,41086,75.2,1,3868,7.1,0,32,0.1,0,2794,5.1,0,50,0.1,1,18379,85,1,3.1,0,110694,1,0,1
The Hurley Tap,/biz/the-hurley-tap-chicago-2?osq=Restaurants,60622,218,0.027790681,3.8,41.9159776,-87.6695863,"1645 W Cortland St, Chicago, IL 60622, United States",ChIJMxZoFxXTD4gRph6FRLVBub8,41086,75.2,1,3868,7.1,0,32,0.1,0,2794,5.1,0,50,0.1,1,18379,85,1,3.1,0,110694,1,0,0
Little Bad Wolf,/biz/little-bad-wolf-chicago?osq=Restaurants,60660,69,0.159116517,4.4,41.9833483,-87.6690624,"1541 W Bryn Mawr Ave, Chicago, IL 60660, United States",ChIJtYk3mI_RD4gRJsyRbLkkt9o,26248,58.4,1,6438,14.3,0,99,0.2,0,6163,13.7,1,55,0.1,1,6628,64.5,1,5.6,1,56090,0,0,0
Six06 Cafe Bar,/biz/six06-cafe-bar-chicago?osq=Restaurants,60622,218,0.074649347,4.5,41.8959178,-87.6689456,"1641 W Chicago Ave, Chicago, IL 60622, United States",ChIJy-EPtDItDogRTieqt5JGKrQ,41086,75.2,1,3868,7.1,0,32,0.1,0,2794,5.1,0,50,0.1,1,18379,85,1,3.1,0,110694,1,0,1
Flour Power,/biz/flour-power-chicago?osq=Restaurants,60622,218,0.131008014,4.8,41.8963091,-87.6689335,"1642 W Chicago Ave, Chicago, IL 60622, United States",ChIJez5SOx7TD4gRjzH66LA-HVE,41086,75.2,1,3868,7.1,0,32,0.1,0,2794,5.1,0,50,0.1,1,18379,85,1,3.1,0,110694,1,0,1
Iron Age Korean Steakhouse,/biz/iron-age-korean-steakhouse-chicago?osq=Restaurants,60622,218,0.146488752,3.9,41.9048778,-87.6686508,"1265 N Milwaukee Ave, Chicago, IL 60622, United States",ChIJ8UQk783TD4gRjzkE7MVtNYk,41086,75.2,1,3868,7.1,0,32,0.1,0,2794,5.1,0,50,0.1,1,18379,85,1,3.1,0,110694,1,0,1
Park Tavern,/biz/park-tavern-chicago?osq=Restaurants,60612,65,0.004381342,3.5,41.877347,-87.6686464,"1645 W Jackson Blvd, Chicago, IL 60612, United States",ChIJozC_ST0tDogR6NuevG697Ac,9611,28.3,0,18830,55.5,1,51,0.2,0,1578,4.7,0,0,0,0,3835,57.5,1,10.8,1,52126,0,1,0
The Ogden Chicago,/biz/the-ogden-chicago-chicago-3?osq=Restaurants,60612,65,0.022438099,4,41.8796028,-87.6680417,"1659 W Ogden Ave, Chicago, IL 60612, United States",ChIJQcKezDwtDogRdXfsl2nhW-I,9611,28.3,0,18830,55.5,1,51,0.2,0,1578,4.7,0,0,0,0,3835,57.5,1,10.8,1,52126,0,1,0
The Jibarito Stop,/biz/the-jibarito-stop-chicago-2?osq=Restaurants,60608,148,0.075981767,4.4,41.8578865,-87.6680407,"1646 W 18th St, Chicago, IL 60608, United States",ChIJ0bovdggtDogRyJgynewxdN4,59259,82.2,1,2683,3.7,0,94,0.1,0,4833,6.7,0,105,0.1,1,23108,90.9,1,7.5,1,98457,1,1,0
Beatnik West Town,/biz/beatnik-west-town-chicago?osq=Restaurants,60622,218,0.116429771,3.9,41.8961966,-87.6676892,"1604 W Chicago Ave, Chicago, IL 60622, United States",ChIJN0L8q9LSD4gRNSMWSKNjIM0,41086,75.2,1,3868,7.1,0,32,0.1,0,2794,5.1,0,50,0.1,1,18379,85,1,3.1,0,110694,1,0,1
Porto,/biz/porto-chicago?osq=Restaurants,60622,218,0.059325267,3.3,41.8963116,-87.6675548,"1600 W Chicago Ave, Chicago, IL 60622, United States",ChIJSTAQDfbTD4gRx2DiiJaqGDg,41086,75.2,1,3868,7.1,0,32,0.1,0,2794,5.1,0,50,0.1,1,18379,85,1,3.1,0,110694,1,0,1
Bartoli's Pizzeria,/biz/bartoli-s-pizzeria-chicago?osq=Restaurants,60622,218,0.013172238,4.3,41.8941524,-87.6674985,"658 N Ashland Ave, Chicago, IL 60622, United States",ChIJof7V-TgtDogRaw12EBuul24,41086,75.2,1,3868,7.1,0,32,0.1,0,2794,5.1,0,50,0.1,1,18379,85,1,3.1,0,110694,1,0,0
Sabroso! Mexican Grill,/biz/sabroso-mexican-grill-chicago-4?osq=Restaurants,60622,218,0.081220731,4.7,41.8932361,-87.6674207,"624 N Ashland Ave, Chicago, IL 60622, United States",ChIJxy9weE0tDogRyEJztLiZn1Q,41086,75.2,1,3868,7.1,0,32,0.1,0,2794,5.1,0,50,0.1,1,18379,85,1,3.1,0,110694,1,0,0
Phodega,/biz/phodega-chicago?osq=Restaurants,60622,218,0.132070901,4.2,41.9101941,-87.6673889,"1547 N Ashland Ave, Chicago, IL 60622, United States",ChIJK2vwZTfTD4gRQU4F8o9_ufc,41086,75.2,1,3868,7.1,0,32,0.1,0,2794,5.1,0,50,0.1,1,18379,85,1,3.1,0,110694,1,0,0
Mott St,/biz/mott-st-chicago-2?osq=Restaurants,60622,218,0.154329121,4,41.9071532,-87.6673657,"1401 N Ashland Ave, Chicago, IL 60622, United States",ChIJKRH5t9rSD4gRCcziAsL8HuI,41086,75.2,1,3868,7.1,0,32,0.1,0,2794,5.1,0,50,0.1,1,18379,85,1,3.1,0,110694,1,0,0
Kennedy Rooftop,/biz/kennedy-rooftop-chicago?osq=Restaurants,60622,218,0.139460928,4.1,41.9103888,-87.6672841,"1551 W North Ave, Chicago, IL 60622, United States",ChIJEzuSqbTTD4gRkFimj49ptuM,41086,75.2,1,3868,7.1,0,32,0.1,0,2794,5.1,0,50,0.1,1,18379,85,1,3.1,0,110694,1,0,0
Lawn Restaurant - Hamburger,/biz/lawn-restaurant-hamburger-chicago?osq=Restaurants,60622,218,0.090760299,4.7,41.9028109,-87.6672638,"1141 N Ashland Ave, Chicago, IL 60622, United States",ChIJ__oHUsXTD4gRxi_gng1Axr4,41086,75.2,1,3868,7.1,0,32,0.1,0,2794,5.1,0,50,0.1,1,18379,85,1,3.1,0,110694,1,0,1
Kimchi Pop,/biz/kimchi-pop-chicago?osq=Restaurants,60622,218,0.133148155,4.3,41.8991172,-87.6671814,"939 N Ashland Ave, Chicago, IL 60622, United States",ChIJPbUEZtLSD4gRQPDDBq3v1ok,41086,75.2,1,3868,7.1,0,32,0.1,0,2794,5.1,0,50,0.1,1,18379,85,1,3.1,0,110694,1,0,1
Junebug Cafe,/biz/junebug-cafe-chicago-2?osq=Restaurants,60622,218,0.051356343,4.5,41.8976039,-87.6671471,"851 N Ashland Ave, Chicago, IL 60622, United States",ChIJxzHfl1XTD4gRMlr1IEfRsRM,41086,75.2,1,3868,7.1,0,32,0.1,0,2794,5.1,0,50,0.1,1,18379,85,1,3.1,0,110694,1,0,1
Rawk N' Vegan,/biz/rawk-n-vegan-chicago-2?osq=Restaurants,60622,218,0.111295167,5,41.8986325,-87.66704509,"917 N Ashland Ave  Chicago, IL 60622  Walton St & Chestnut St  West Town",-,41086,75.2,1,3868,7.1,0,32,0.1,0,2794,5.1,0,50,0.1,1,18379,85,1,3.1,0,110694,1,0,1
SoJu BBQ,/biz/soju-bbq-chicago?osq=Restaurants,60607,198,0.149271014,4.3,41.8804776,-87.6670036,"36 S Ashland Ave, Chicago, IL 60607, United States",ChIJiwECKsYtDogRv5NcbQIhYnc,16844,56.2,1,3742,12.5,0,107,0.4,0,6724,22.4,1,17,0.1,1,8429,88.1,1,7,1,109634,1,0,0
Podhalanka,/biz/podhalanka-chicago?osq=Restaurants,60642,73,0.076731433,4.1,41.9032029,-87.6669983,"1549 W Division St, Chicago, IL 60642, United States",ChIJt1YLzNHSD4gRe9vxG_pWfj0,15076,70.5,1,2067,9.7,0,15,0.1,0,1595,7.5,1,0,0,0,8215,87.8,1,4.2,1,131201,1,0,1
Dr Bird's Jamaican Patty Shack,/biz/dr-bird-s-jamaican-patty-shack-chicago-2?osq=Restaurants,60642,73,0.113450225,4.5,41.9038977,-87.6667435,"1215 N Milwaukee Ave, Chicago, IL 60642, United States",ChIJ8UrAPL_TD4gRAGpNB-EVCM4,15076,70.5,1,2067,9.7,0,15,0.1,0,1595,7.5,1,0,0,0,8215,87.8,1,4.2,1,131201,1,0,1
SPICY FINGERS Seafood Kitchen,/biz/spicy-fingers-seafood-kitchen-chicago?osq=Restaurants,60642,73,0.111175059,4.4,41.8958958,-87.666725,"1549 W Chicago Ave, Chicago, IL 60642, United States",ChIJTyvdx4MtDogRDC9RZhJWqc8,15076,70.5,1,2067,9.7,0,15,0.1,0,1595,7.5,1,0,0,0,8215,87.8,1,4.2,1,131201,1,0,1
La Mejikana,/biz/la-mejikana-chicago-2?osq=Restaurants,60608,148,0.121402126,4.4,41.8571111,-87.6664547,"1820 S Ashland Ave, Chicago, IL 60608, United States",ChIJt7tUSpUtDogRPopzhXfm3Nk,59259,82.2,1,2683,3.7,0,94,0.1,0,4833,6.7,0,105,0.1,1,23108,90.9,1,7.5,1,98457,1,1,0
Fry The Coop,/biz/fry-the-coop-chicago-3?osq=Restaurants,60642,73,0.004371134,4.2,41.8958931,-87.6660152,"1529 W Chicago Ave, Chicago, IL 60642, United States",ChIJv9qywm0tDogRWJ4G6ip1glk,15076,70.5,1,2067,9.7,0,15,0.1,0,1595,7.5,1,0,0,0,8215,87.8,1,4.2,1,131201,1,0,1
jeong,/biz/jeong-chicago?osq=Restaurants,60642,73,0.121247322,4.6,41.8962398,-87.6648334,"1460 W Chicago Ave, Chicago, IL 60642, United States",ChIJLwlex_7TD4gRGPKEsZApggo,15076,70.5,1,2067,9.7,0,15,0.1,0,1595,7.5,1,0,0,0,8215,87.8,1,4.2,1,131201,1,0,1
Port and Park Bistro,/biz/port-and-park-bistro-chicago-4?osq=Restaurants,60613,126,0.022018331,3.8,41.954514,-87.6644832,"4000 N Southport Ave, Chicago, IL 60613, United States",ChIJY-AFsqbTD4gRn-i30DdUZiE,41222,77.4,1,3146,5.9,0,160,0.3,0,4651,8.7,1,7,0,0,14545,86.4,1,4.1,1,88267,1,1,0
Pequod's Pizzeria,/biz/pequods-pizzeria-chicago?osq=Restaurants,60614,269,0.031185933,3.9,41.921934,-87.6643512,"2207 N Clybourn Ave, Chicago, IL 60614, United States",ChIJQ6vcPuTSD4gRTbyKKQufF_o,59962,83.1,1,2863,4,0,27,0,0,5165,7.2,1,2,0,0,20623,93.3,1,3.4,0,123610,1,1,0
Hinoki Sushiko,/biz/hinoki-sushiko-chicago?osq=Restaurants,60642,73,0.013385763,4.3,41.9137645,-87.6641745,"1465 W Willow St, Chicago, IL 60642, United States",ChIJMZhCs_bTD4gRHuULggAiSD8,15076,70.5,1,2067,9.7,0,15,0.1,0,1595,7.5,1,0,0,0,8215,87.8,1,4.2,1,131201,1,0,0
Marrakech,/biz/marrakech-chicago?osq=Restaurants,60642,73,0.148730534,4.9,41.8963399318358,-87.6640226170816,"1440 W Chicago Ave, Chicago, IL 60642, United States",ChIJUZ4Xlo3urw0RuK2HT1O2UFk,15076,70.5,1,2067,9.7,0,15,0.1,0,1595,7.5,1,0,0,0,8215,87.8,1,4.2,1,131201,1,0,0
Little Goat Diner,/biz/little-goat-diner-chicago-5?osq=Restaurants,60607,198,0.125868017,4.1,41.9423438,-87.6635606,"3325 N Southport Ave, Chicago, IL 60657, United States",ChIJ-zu2tdosDogRx95ZkNcp7t0,16844,56.2,1,3742,12.5,0,107,0.4,0,6724,22.4,1,17,0.1,1,8429,88.1,1,7,1,109634,1,0,0
Ella Elli,/biz/ella-elli-chicago?osq=Restaurants,60657,233,0.112152512,4.4,41.9451544,-87.6633992,"1349 W Cornelia Ave, Chicago, IL 60657, United States",ChIJNQsG_FHSD4gRhfCBxiaIkbE,59259,82.2,1,2683,3.7,0,94,0.1,0,4833,6.7,0,105,0.1,1,23108,90.9,1,4.2,1,98457,1,0,0
Provare,/biz/provare-chicago?osq=Restaurants,60642,73,0.149263799,4.5,41.8959645,-87.6632941,"1421 W Chicago Ave, Chicago, IL 60642, United States",ChIJseVXOfHTD4gRZ3f6t3Gmkok,15076,70.5,1,2067,9.7,0,15,0.1,0,1595,7.5,1,0,0,0,8215,87.8,1,4.2,1,131201,1,0,1
Dear Margaret,/biz/dear-margaret-chicago?osq=Restaurants,60657,233,0.129919883,4.7,41.9358605,-87.6629129,"2965 N Lincoln Ave, Chicago, IL 60657, United States",ChIJK6F0pf3TD4gRE6NV_SnqgzU,59259,82.2,1,2683,3.7,0,94,0.1,0,4833,6.7,0,105,0.1,1,23108,90.9,1,4.2,1,98457,1,0,0
Bambola & Coquette,/biz/bambola-and-coquette-chicago-2?osq=Restaurants,60607,198,0.035311132,3.8,41.8845081,-87.6627103,"1402 W Randolph St, Chicago, IL 60607, United States",ChIJMzdq5oMtDogR_8ew6EEAAHQ,16844,56.2,1,3742,12.5,0,107,0.4,0,6724,22.4,1,17,0.1,1,8429,88.1,1,7,1,109634,1,0,0
Fat Shack,/biz/fat-shack-chicago-3?osq=Restaurants,60614,269,0.109257946,4.6,41.9199959,-87.6625407,"2140 N Clybourn Ave, Chicago, IL 60614, United States",ChIJZRClVdXTD4gRJMqVfqy60dY,59962,83.1,1,2863,4,0,27,0,0,5165,7.2,1,2,0,0,20623,93.3,1,3.4,0,123610,1,1,0
Noble Thai,/biz/noble-thai-chicago?osq=Restaurants,60642,73,0.031628603,4.5,41.8959693,-87.6621856,"1371 W Chicago Ave, Chicago, IL 60642, United States",ChIJ8x6-RWvTD4gRF2dcSiM1i8A,15076,70.5,1,2067,9.7,0,15,0.1,0,1595,7.5,1,0,0,0,8215,87.8,1,4.2,1,131201,1,0,1
Farm Bar Lakeview,/biz/farm-bar-lakeview-chicago?osq=Restaurants,60657,233,0.131298566,4.2,41.9363136,-87.6614008,"1300 W Wellington Ave, Chicago, IL 60657, United States",ChIJkb-okVXSD4gREGIEw0kBG6E,59259,82.2,1,2683,3.7,0,94,0.1,0,4833,6.7,0,105,0.1,1,23108,90.9,1,4.2,1,98457,1,0,0
1308 Chicago,/biz/1308-chicago-chicago?osq=Restaurants,60642,73,0.105143357,4.8,41.9056954,-87.6601398,"1308 N Elston Ave, Chicago, IL 60642, United States",ChIJSaK7HorTD4gR9SMNsUQZoIU,15076,70.5,1,2067,9.7,0,15,0.1,0,1595,7.5,1,0,0,0,8215,87.8,1,4.2,1,131201,1,0,0
Quesabirria Jalisco Tacos,/biz/quesabirria-jalisco-tacos-chicago-2?osq=Restaurants,60608,148,0.107798917,4.9,41.8579953,-87.6595477,"1314 W 18th St, Chicago, IL 60608, United States",ChIJe-XHyHwtDogRUZiww0tON24,59259,82.2,1,2683,3.7,0,94,0.1,0,4833,6.7,0,105,0.1,1,23108,90.9,1,7.5,1,98457,1,1,0
Royal Highness Zhu,/biz/royal-highness-zhu-chicago-2?osq=Restaurants,60614,269,0.085503692,4.5,41.9251625,-87.6591596,"1217-1219 W Fullerton Ave, Chicago, IL 60614, United States",ChIJ-eyfYMHTD4gRkaVNcDeyAm4,59962,83.1,1,2863,4,0,27,0,0,5165,7.2,1,2,0,0,20623,93.3,1,3.4,0,123610,1,1,0
Lost Never Found,/biz/lost-never-found-chicago?osq=Restaurants,60613,126,0.152430232,4.7,41.9486713,-87.6581882,"3660 N Clark St, Chicago, IL 60613, United States",ChIJOyRDx-PTD4gRIDg5xwcolqU,41222,77.4,1,3146,5.9,0,160,0.3,0,4651,8.7,1,7,0,0,14545,86.4,1,4.1,1,88267,1,1,0
Big Star Mariscos,/biz/big-star-mariscos-chicago-2?osq=Restaurants,60642,73,0.117403561,3.4,41.8922391,-87.6578035,"551 N Ogden Ave, Chicago, IL 60642, United States",ChIJdZ4F1-MtDogRT7u4sx8LEu0,15076,70.5,1,2067,9.7,0,15,0.1,0,1595,7.5,1,0,0,0,8215,87.8,1,4.2,1,131201,1,0,0
Elina's,/biz/elinas-chicago?osq=Restaurants,60642,73,0.077740606,3.9,41.8912431,-87.657651,"1202 W Grand Ave, Chicago, IL 60642, United States",ChIJQxn8HS0tDogRz-XT8BXKN-E,15076,70.5,1,2067,9.7,0,15,0.1,0,1595,7.5,1,0,0,0,8215,87.8,1,4.2,1,131201,1,0,0
Butcher & The Burger,/biz/butcher-and-the-burger-chicago?osq=Restaurants,60614,269,0.035130132,4,41.9179972,-87.6541834,"1021 W Armitage Ave, Chicago, IL 60614, United States",ChIJOZwOIR_TD4gRznsh50Ugn-Y,59962,83.1,1,2863,4,0,27,0,0,5165,7.2,1,2,0,0,20623,93.3,1,3.4,0,123610,1,1,0
Bolivar & Lincoln Venezuelan Cafe,/biz/bolivar-and-lincoln-venezuelan-cafe-chicago?osq=Restaurants,60657,233,0.099476005,4.9,41.9432109,-87.6540311,"Store front 1, 3349 N Sheffield Ave, Chicago, IL 60657, United States",ChIJ0-3yUgDTD4gR27-rQ2uSB8s,59259,82.2,1,2683,3.7,0,94,0.1,0,4833,6.7,0,105,0.1,1,23108,90.9,1,4.2,1,98457,1,0,0
Armitage Alehouse,/biz/armitage-alehouse-chicago?osq=Restaurants,60614,269,0.132821281,4.4,41.9183532,-87.6536,"1000 W Armitage Ave, Chicago, IL 60614, United States",ChIJO0zgvw3TD4gRtEez2q5Y-EA,59962,83.1,1,2863,4,0,27,0,0,5165,7.2,1,2,0,0,20623,93.3,1,3.4,0,123610,1,1,0
Monteverde,/biz/monteverde-chicago?osq=Restaurants,60607,198,0.09380337,4.4,41.8818303,-87.6530626,"1020 W Madison St, Chicago, IL 60607, United States",ChIJMViM4dssDogRdmIJH2z_Q10,16844,56.2,1,3742,12.5,0,107,0.4,0,6724,22.4,1,17,0.1,1,8429,88.1,1,7,1,109634,1,0,0
Lowcountry Lakeview,/biz/lowcountry-lakeview-chicago?osq=Restaurants,60657,233,0.120854606,4.5,41.9428404,-87.6528472,"3343 N Clark St, Chicago, IL 60657, United States",ChIJp2vsfa7TD4gRgiy9XMOp66I,59259,82.2,1,2683,3.7,0,94,0.1,0,4833,6.7,0,105,0.1,1,23108,90.9,1,4.2,1,98457,1,0,0
Willies `n Waffles,/biz/willies-n-waffles-chicago?osq=Restaurants,60657,233,0.155560352,4.7,41.9397108,-87.6528152,"931 W Belmont Ave, Chicago, IL 60657, United States",ChIJyf9P0iDTD4gRtWJZ11kFSlA,59259,82.2,1,2683,3.7,0,94,0.1,0,4833,6.7,0,105,0.1,1,23108,90.9,1,4.2,1,98457,1,0,0
Daebak Lincoln Park,/biz/daebak-lincoln-park-chicago?osq=Restaurants,60642,73,0.05815341,3.4,41.9088173,-87.6522068,"1523 N Kingsbury St, Chicago, IL 60642, United States",ChIJ0RGBd83TD4gRwZBOc0s8Ovk,15076,70.5,1,2067,9.7,0,15,0.1,0,1595,7.5,1,0,0,0,8215,87.8,1,4.2,1,131201,1,0,0
Kyoku Sushi,/biz/kyoku-sushi-chicago?osq=Restaurants,60614,269,0.036098428,4.9,41.9275134,-87.6519349,"2518 N Lincoln Ave, Chicago, IL 60614, United States",ChIJQ71XNLrTD4gRDsnAI8whUxc,59962,83.1,1,2863,4,0,27,0,0,5165,7.2,1,2,0,0,20623,93.3,1,3.4,0,123610,1,1,0
Gaijin,/biz/gaijin-chicago?osq=Restaurants,60607,198,0.190441383,4.3,41.8857081,-87.6517592,"950 W Lake St, Chicago, IL 60607, United States",ChIJgVZJntAsDogRGymcVEr0ypI,16844,56.2,1,3742,12.5,0,107,0.4,0,6724,22.4,1,17,0.1,1,8429,88.1,1,7,1,109634,1,0,1
Rose Mary,/biz/rose-mary-chicago-2?osq=Restaurants,60607,198,0.152578183,4.4,41.8869519,-87.6511541,"932 W Fulton St, Chicago, IL 60607, United States",ChIJ5x1j00EtDogRy59iMkDkmBY,16844,56.2,1,3742,12.5,0,107,0.4,0,6724,22.4,1,17,0.1,1,8429,88.1,1,7,1,109634,1,0,1
Mixteco Mexican Grill,/biz/mixteco-mexican-grill-chicago-8?osq=Restaurants,60642,73,0.044028581,4.6,41.9398725,-87.6511306,"847 W Belmont Ave, Chicago, IL 60657, United States",ChIJp-kIL6nTD4gReF8DhjPC0JY,15076,70.5,1,2067,9.7,0,15,0.1,0,1595,7.5,1,0,0,0,8215,87.8,1,4.2,1,131201,1,0,0
Puttery Chicago,/biz/puttery-chicago-chicago?osq=Restaurants,60607,198,0.103444445,5,41.8847114,-87.6510811,"932 W Randolph St, Chicago, IL 60607, United States",ChIJcaw2-sQtDogR82QCa5JCU-A,16844,56.2,1,3742,12.5,0,107,0.4,0,6724,22.4,1,17,0.1,1,8429,88.1,1,7,1,109634,1,0,1
L%C3%9DRA,/biz/l%C3%BDra-chicago-2?osq=Restaurants,60607,198,0.155626499,4.1,41.88666,-87.6501,"905 W Fulton Market  Chicago, IL 60607  Fulton Market, West Loop, Near West Side",-,16844,56.2,1,3742,12.5,0,107,0.4,0,6724,22.4,1,17,0.1,1,8429,88.1,1,7,1,109634,1,0,1
Parachute,/biz/parachute-chicago?osq=Restaurants,60618,177,0.008773031,4,41.9179598,-87.6500031,"837 W Armitage Ave, Chicago, IL 60614, United States",ChIJM-0dbr_TD4gRjSL6zBxzoA8,62235,65.5,1,2661,2.8,0,199,0.2,0,6151,6.5,0,154,0.2,1,13382,65.7,1,4.8,1,91650,1,0,0
Galit,/biz/galit-chicago?osq=Restaurants,60614,269,0.139102192,4.3,41.9262961,-87.6494903,"2429 N Lincoln Ave, Chicago, IL 60614, United States",ChIJ37gaSeXTD4gR4G_7yDPUKME,59962,83.1,1,2863,4,0,27,0,0,5165,7.2,1,2,0,0,20623,93.3,1,3.4,0,123610,1,1,0
Dom's Kitchen & Market,/biz/doms-kitchen-and-market-chicago-3?osq=Restaurants,60610,166,0.044810419,5,41.9324289,-87.649256,"2730 N Halsted St, Chicago, IL 60614, United States",ChIJuRNbzZPTD4gRcNYOBGExNeg,30940,72.9,1,5110,12,0,97,0.2,0,4019,9.5,1,7,0,0,13574,89.6,1,3.1,0,99246,1,0,0
Trivoli Tavern,/biz/trivoli-tavern-chicago?osq=Restaurants,60607,198,0.13064902,4.5,41.8838272,-87.6492538,"114 N Green St, Chicago, IL 60607, United States",ChIJSwROLIEtDogRw4rWhgp9Ehs,16844,56.2,1,3742,12.5,0,107,0.4,0,6724,22.4,1,17,0.1,1,8429,88.1,1,7,1,109634,1,0,1
Gino & Martys,/biz/gino-and-martys-chicago?osq=Restaurants,60607,198,0.00440587,4,41.8846985,-87.649211,"844 W Randolph St, Chicago, IL 60607, United States",ChIJFWic8Z8tDogRnAukuFjjx3s,16844,56.2,1,3742,12.5,0,107,0.4,0,6724,22.4,1,17,0.1,1,8429,88.1,1,7,1,109634,1,0,1
Cabra,/biz/cabra-chicago-2?osq=Restaurants,60607,198,0.160342609,4.1,41.8858604,-87.6490707,"200 N Green St, Chicago, IL 60607, United States",ChIJRdBgBtAsDogRyPCWhE3hjeo,16844,56.2,1,3742,12.5,0,107,0.4,0,6724,22.4,1,17,0.1,1,8429,88.1,1,7,1,109634,1,0,1
Hide+Seek,/biz/hide-seek-chicago?osq=Restaurants,60607,198,0.211472524,4,41.8846822,-87.6490019,"838 W Randolph St, Chicago, IL 60607, United States",ChIJxcnna9EtDogRiD7VMywXfw4,16844,56.2,1,3742,12.5,0,107,0.4,0,6724,22.4,1,17,0.1,1,8429,88.1,1,7,1,109634,1,0,1
Medi Kitchen & Cocktail,/biz/medi-kitchen-and-cocktail-chicago?osq=Restaurants,60614,269,0.04404279,4.5,41.9211387,-87.6489538,"2138 N Halsted St, Chicago, IL 60614, United States",ChIJKUKSJufTD4gRdD78r-1w-Po,59962,83.1,1,2863,4,0,27,0,0,5165,7.2,1,2,0,0,20623,93.3,1,3.4,0,123610,1,1,0
Cira,/biz/cira-chicago?osq=Restaurants,60607,198,0.120884898,4.2,41.885825,-87.6489435,"200 N Green St, Chicago, IL 60607, United States",ChIJRdBgBtAsDogRgWN8ceYmgks,16844,56.2,1,3742,12.5,0,107,0.4,0,6724,22.4,1,17,0.1,1,8429,88.1,1,7,1,109634,1,0,1
Sapori Trattoria,/biz/sapori-trattoria-chicago?osq=Restaurants,60614,269,0.053394058,4.4,41.9316548,-87.6488609,"2701 N Halsted St, Chicago, IL 60614, United States",ChIJ1VStIgbTD4gRt1Rj342S-vs,59962,83.1,1,2863,4,0,27,0,0,5165,7.2,1,2,0,0,20623,93.3,1,3.4,0,123610,1,1,0
Aba,/biz/aba-chicago-2?osq=Restaurants,60607,198,0.176934122,4.4,41.887005,-87.6488501,"302 N Green St 3rd Floor, Chicago, IL 60607, United States",ChIJHy_uxjQtDogREgbDgcjizn8,16844,56.2,1,3742,12.5,0,107,0.4,0,6724,22.4,1,17,0.1,1,8429,88.1,1,7,1,109634,1,0,1
Summer House Santa Monica,/biz/summer-house-santa-monica-chicago-4?osq=Restaurants,60614,269,0.129835075,3.9,41.9175747,-87.6486478,"1954 N Halsted St, Chicago, IL 60614, United States",ChIJxYDpLhjTD4gRXbOM_K_279E,59962,83.1,1,2863,4,0,27,0,0,5165,7.2,1,2,0,0,20623,93.3,1,3.4,0,123610,1,1,0
Tiny Goat,/biz/tiny-goat-chicago-2?osq=Restaurants,60607,198,0.109402254,4.7,41.8846834,-87.6484399,"820 W Randolph St Second Floor, Chicago, IL 60607, United States",ChIJ_0ZDEJQtDogRgNJQe7T2MWE,16844,56.2,1,3742,12.5,0,107,0.4,0,6724,22.4,1,17,0.1,1,8429,88.1,1,7,1,109634,1,0,1
Alinea,/biz/alinea-chicago?osq=Restaurants,60614,269,0.070599792,4.4,41.913435,-87.6480552,"1723 N Halsted St, Chicago, IL 60614, United States",ChIJuyI60yLTD4gROwTWENq1He0,59962,83.1,1,2863,4,0,27,0,0,5165,7.2,1,2,0,0,20623,93.3,1,3.4,0,123610,1,1,0
Boka,/biz/boka-chicago?osq=Restaurants,60614,269,0.151484835,4.3,41.9135551,-87.6480103,"1729 N Halsted St, Chicago, IL 60614, United States",ChIJg7aSMj3TD4gRlHUmzqlebUI,59962,83.1,1,2863,4,0,27,0,0,5165,7.2,1,2,0,0,20623,93.3,1,3.4,0,123610,1,1,0
Girl & The Goat,/biz/girl-and-the-goat-chicago?osq=Restaurants,60607,198,0.749654278,4.4,41.8841811,-87.6479449,"809 W Randolph St, Chicago, IL 60607, United States",ChIJs8mbNsUsDogRUnpg-b_IK5E,16844,56.2,1,3742,12.5,0,107,0.4,0,6724,22.4,1,17,0.1,1,8429,88.1,1,7,1,109634,1,0,1
Boqueria - Chicago,/biz/boqueria-chicago-chicago?osq=Restaurants,60607,198,0.139617203,4.2,41.8866072,-87.6478944,"807 W Fulton Market, Chicago, IL 60607, United States",ChIJfxX6KZItDogRhRmRbe58p-g,16844,56.2,1,3742,12.5,0,107,0.4,0,6724,22.4,1,17,0.1,1,8429,88.1,1,7,1,109634,1,0,1
Tamashii Ramen,/biz/tamashii-ramen-chicago?osq=Restaurants,60607,198,0.039742186,4.6,41.8781743,-87.6478044,"810 W Jackson Blvd, Chicago, IL 60607, United States",ChIJr2WiS7otDogRJ4Lmj-vb95w,16844,56.2,1,3742,12.5,0,107,0.4,0,6724,22.4,1,17,0.1,1,8429,88.1,1,7,1,109634,1,0,0
Au Cheval,/biz/au-cheval-chicago?osq=Restaurants,60607,198,0.199709,4.4,41.8846241,-87.6475954,"800 W Randolph St, Chicago, IL 60607, United States",ChIJ78NyRsUsDogR6AqyYoPrts4,16844,56.2,1,3742,12.5,0,107,0.4,0,6724,22.4,1,17,0.1,1,8429,88.1,1,7,1,109634,1,0,1
CityBird,/biz/citybird-chicago?osq=Restaurants,60661,100,0.100380806,5,41.8797412,-87.6475537,"120 S Halsted St, Chicago, IL 60661, United States",ChIJxZSMu3gtDogRvsENSLjF0y8,6913,62.4,1,283,2.6,0,0,0,0,3177,28.7,1,0,0,0,4788,94.4,1,1.9,0,139063,1,0,0
Greek Islands Restaurant,/biz/greek-islands-restaurant-chicago?osq=Restaurants,60661,100,0.013275468,4.2,41.8790063,-87.6475439,"200 S Halsted St, Chicago, IL 60661, United States",ChIJffLJO8MsDogRLv-ZPBnvROI,6913,62.4,1,283,2.6,0,0,0,0,3177,28.7,1,0,0,0,4788,94.4,1,1.9,0,139063,1,0,0
Sparks Cafe And Restaurant,/biz/sparks-cafe-and-restaurant-chicago?osq=Restaurants,60613,126,0.155009562,4.9,41.9601555,-87.6473919,"4250 N Marine Dr, Chicago, IL 60613, United States",ChIJJcpUuerTD4gRfISrt6tKNXE,41222,77.4,1,3146,5.9,0,160,0.3,0,4651,8.7,1,7,0,0,14545,86.4,1,4.1,1,88267,1,1,0
Ghareeb Nawaz,/biz/ghareeb-nawaz-chicago-2?osq=Restaurants,60614,269,0.135056543,5,41.8665953,-87.6473115,"807 W Roosevelt Rd, Chicago, IL 60608, United States",ChIJQ5WH6-8sDogRiOSiAaMLbus,59962,83.1,1,2863,4,0,27,0,0,5165,7.2,1,2,0,0,20623,93.3,1,3.4,0,123610,1,1,0
Pleasant House Pub,/biz/pleasant-house-pub-chicago-3?osq=Restaurants,60608,148,0.155300647,4.4,41.8534956,-87.6462925,"2119 S Halsted St, Chicago, IL 60608, United States",ChIJMe6pU1gsDogRVi7P2WTpr5A,59259,82.2,1,2683,3.7,0,94,0.1,0,4833,6.7,0,105,0.1,1,23108,90.9,1,7.5,1,98457,1,1,0
Crab King Cajun Boil & Bar - Chicago,/biz/crab-king-cajun-boil-and-bar-chicago-chicago?osq=Restaurants,60657,233,0.089576605,4.6,41.9446762,-87.6454973,"3443 N Broadway, Chicago, IL 60657, United States",ChIJy6P6kYjTD4gRblvF7lFhHi8,59259,82.2,1,2683,3.7,0,94,0.1,0,4833,6.7,0,105,0.1,1,23108,90.9,1,4.2,1,98457,1,0,0
Kim's Korean Cuisine and Sushi,/biz/kims-korean-cuisine-and-sushi-chicago?osq=Restaurants,60657,233,0.004438973,4.8,41.9438963,-87.6454327,"3422 N Broadway, Chicago, IL 60657, United States",ChIJFQVh3ivTD4gRM91cFnueCk8,59259,82.2,1,2683,3.7,0,94,0.1,0,4833,6.7,0,105,0.1,1,23108,90.9,1,4.2,1,98457,1,0,0
Oriole,/biz/oriole-chicago?osq=Restaurants,60661,100,0.123896266,4.8,41.8861692,-87.6450939,"661 W Walnut St, Chicago, IL 60661, United States",ChIJ4_ovZs8sDogRyw3X3QCiI-Y,6913,62.4,1,283,2.6,0,0,0,0,3177,28.7,1,0,0,0,4788,94.4,1,1.9,0,139063,1,0,1
Aikana Chicago,/biz/aikana-chicago-chicago?osq=Restaurants,60661,100,0.026504567,4,41.8846414,-87.6449306,"652 W Randolph St, Chicago, IL 60661, United States",ChIJQQWcF_EtDogRlxpLNLZ543k,6913,62.4,1,283,2.6,0,0,0,0,3177,28.7,1,0,0,0,4788,94.4,1,1.9,0,139063,1,0,1
SGD Dubu So Gong Dong Tofu & Korean BBQ,/biz/sgd-dubu-so-gong-dong-tofu-and-korean-bbq-chicago?osq=Restaurants,60661,100,0.071141913,3.8,41.8778208,-87.6448765,"H Mart Food Court, 711 W Jackson Blvd, Chicago, IL 60661, United States",ChIJQUB-SMIsDogRy1H40xkhLw4,6913,62.4,1,283,2.6,0,0,0,0,3177,28.7,1,0,0,0,4788,94.4,1,1.9,0,139063,1,0,0
Perilla Korean American Fare,/biz/perilla-korean-american-fare-chicago-4?osq=Restaurants,60654,156,0.156471642,4.3,41.889418,-87.6445196,"401 N Milwaukee Ave, Chicago, IL 60654, United States",ChIJO6CFPTQtDogRGbxg4_j8wDo,16071,73.5,1,913,4.2,0,47,0.2,0,2671,12.2,1,0,0,0,8809,95.2,1,2.4,0,127072,1,1,0
Crisp,/biz/crisp-chicago?osq=Restaurants,60657,233,0.05605556,4.3,41.9361111,-87.6444389,"2940 N Broadway, Chicago, IL 60657, United States",ChIJx5g_QqfTD4gR5tBjUdrbZxY,59259,82.2,1,2683,3.7,0,94,0.1,0,4833,6.7,0,105,0.1,1,23108,90.9,1,4.2,1,98457,1,0,0
Musashiya Ramen,/biz/musashiya-ramen-chicago?osq=Restaurants,60657,233,0.004384784,4.1,41.9360622,-87.6443992,"2938 N Broadway, Chicago, IL 60657, United States",ChIJX_tl4d7TD4gRQFApUFw8uDo,59259,82.2,1,2683,3.7,0,94,0.1,0,4833,6.7,0,105,0.1,1,23108,90.9,1,4.2,1,98457,1,0,0
Cubaneo,/biz/cubaneo-chicago?osq=Restaurants,60657,233,0.004466043,5,41.9349395,-87.6440569,"2873 N Broadway, Chicago, IL 60657, United States",ChIJxU1rK5HTD4gRBAFkq93mkFE,59259,82.2,1,2683,3.7,0,94,0.1,0,4833,6.7,0,105,0.1,1,23108,90.9,1,4.2,1,98457,1,0,0
Kababish - BBQ & Grill,/biz/kababish-bbq-and-grill-chicago?osq=Restaurants,60610,166,0.054201252,4.6,41.9106037,-87.6436203,"1546 N Larrabee St, Chicago, IL 60610, United States",ChIJcVkY6-zTD4gRHd1V0JPgAJw,30940,72.9,1,5110,12,0,97,0.2,0,4019,9.5,1,7,0,0,13574,89.6,1,3.1,0,99246,1,0,0
Avec - Chicago,/biz/avec-chicago-chicago?osq=Restaurants,60661,100,0.094190084,4.3,41.8842861,-87.643401,"615 W Randolph St, Chicago, IL 60661, United States",ChIJNYrg38UsDogRP1lxJuC05hw,6913,62.4,1,283,2.6,0,0,0,0,3177,28.7,1,0,0,0,4788,94.4,1,1.9,0,139063,1,0,1
Del Seoul,/biz/del-seoul-chicago?osq=Restaurants,60614,269,0.004367771,3.4,41.9294615,-87.6429558,"2568 N Clark St, Chicago, IL 60614, United States",ChIJmcIAGwzTD4gRC37nKNYVECg,59962,83.1,1,2863,4,0,27,0,0,5165,7.2,1,2,0,0,20623,93.3,1,3.4,0,123610,1,1,0
Alla Vita,/biz/alla-vita-chicago?osq=Restaurants,60661,100,0.013130995,4.3,41.884577,-87.6425231,"564 W Randolph St, Chicago, IL 60661, United States",ChIJEUAV9zMtDogRJbm6cdw59JE,6913,62.4,1,283,2.6,0,0,0,0,3177,28.7,1,0,0,0,4788,94.4,1,1.9,0,139063,1,0,1
Qiao Lin Hotpot,/biz/qiao-lin-hotpot-chicago-2?osq=Restaurants,60616,195,0.125732674,4.7,41.8539185,-87.6415922,"2105 S Jefferson St Suite A, Chicago, IL 60616, United States",ChIJvec7ZoYtDogRUm_Xw_yGddw,17968,33.8,0,12502,23.6,0,318,0.6,1,19788,37.3,1,0,0,0,9449,78.9,1,6.3,1,65489,0,1,0
Firenze Italian Street Food,/biz/firenze-italian-street-food-chicago-2?osq=Restaurants,60622,218,0.113482612,5,41.884137,-87.640973,"131 N Clinton St, Chicago, IL 60661, United States",ChIJFRVfSsYsDogRt4XEF8LjjD0,41086,75.2,1,3868,7.1,0,32,0.1,0,2794,5.1,0,50,0.1,1,18379,85,1,3.1,0,110694,1,0,1
Barangaroos Aussie Pies,/biz/barangaroos-aussie-pies-chicago?osq=Restaurants,60657,233,0.062150566,4.5,41.884137,-87.640973,"131 N Clinton St, Chicago, IL 60661, United States",ChIJ76ZzG3ktDogRPXQNT8HUcLY,59259,82.2,1,2683,3.7,0,94,0.1,0,4833,6.7,0,105,0.1,1,23108,90.9,1,4.2,1,98457,1,0,1
Wake `n Bacon,/biz/wake-n-bacon-chicago?osq=Restaurants,60657,233,0.137149162,4.2,41.9402209,-87.6403387,"420 W Belmont Ave, Chicago, IL 60657, United States",ChIJVXuId7HTD4gRpx9OtFIPatY,59259,82.2,1,2683,3.7,0,94,0.1,0,4833,6.7,0,105,0.1,1,23108,90.9,1,4.2,1,98457,1,0,0
Canal Street Eatery & Market,/biz/canal-street-eatery-and-market-chicago?osq=Restaurants,60606,149,0.004431457,5,41.877216,-87.6400373,"314 S Canal St, Chicago, IL 60606, United States",ChIJ16YJsywtDogRnFIYuZ4DqRk,2045,62,1,16,0.5,0,0,0,0,1087,33,1,0,0,0,1047,98.1,1,3.9,1,130196,1,1,0
Boxcar Betty's,/biz/boxcar-bettys-chicago-2?osq=Restaurants,60622,218,0.067602753,4.6,41.8821487,-87.6399307,"500 W Madison St, Chicago, IL 60661, United States",ChIJHfKkQLYtDogRTcU2huEDWjs,41086,75.2,1,3868,7.1,0,32,0.1,0,2794,5.1,0,50,0.1,1,18379,85,1,3.1,0,110694,1,0,0
Obelix,/biz/obelix-chicago?osq=Restaurants,60654,156,0.116963188,4.5,41.8949187,-87.6386592,"700 N Sedgwick St, Chicago, IL 60654, United States",ChIJuS3rXR4tDogRfctqorJ8Qng,16071,73.5,1,913,4.2,0,47,0.2,0,2671,12.2,1,0,0,0,8809,95.2,1,2.4,0,127072,1,1,0
3 Little Pigs Chi,/biz/3-little-pigs-chi-chicago?osq=Restaurants,60610,166,0.15423422,4.9,41.8973543,-87.6385033,"Chicago, IL 60610, United States",ChIJvbOfnMXND4gRvWb5RRDrwsc,30940,72.9,1,5110,12,0,97,0.2,0,4019,9.5,1,7,0,0,13574,89.6,1,3.1,0,99246,1,0,0
Small Cheval,/biz/small-cheval-chicago-2?osq=Restaurants,60647,248,0.138126688,4.3,41.8849972,-87.6384474,"150 N Riverside Plaza, Chicago, IL 60606, United States",ChIJ8Ujt-ccsDogRWpoWONsAVxM,58385,68.2,1,5701,6.7,0,476,0.6,1,3658,4.3,0,62,0.1,1,20518,76.1,1,3.7,1,89974,1,0,0
Small Cheval,/biz/small-cheval-wicker-park-chicago?osq=Restaurants,60647,248,0.015931492,4.3,41.8849972,-87.6384474,"150 N Riverside Plaza, Chicago, IL 60606, United States",ChIJ8Ujt-ccsDogRWpoWONsAVxM,58385,68.2,1,5701,6.7,0,476,0.6,1,3658,4.3,0,62,0.1,1,20518,76.1,1,3.7,1,89974,1,0,0
Ikigai Sushi & Izakaya,/biz/ikigai-sushi-and-izakaya-chicago?osq=Restaurants,60654,156,0.040654631,4.7,41.8967757,-87.6384187,"372 W Chicago Ave, Chicago, IL 60654, United States",ChIJ_5nibVTTD4gR8F_8Tb96p24,16071,73.5,1,913,4.2,0,47,0.2,0,2671,12.2,1,0,0,0,8809,95.2,1,2.4,0,127072,1,1,0
Chicago Pizza And Oven Grinder Company,/biz/chicago-pizza-and-oven-grinder-company-chicago?osq=Restaurants,60614,269,0.129237302,4.1,41.9207609,-87.6373869,"2121 N Clark St, Chicago, IL 60614, United States",ChIJx11WoWzTD4gRr2-RP6xmsaY,59962,83.1,1,2863,4,0,27,0,0,5165,7.2,1,2,0,0,20623,93.3,1,3.4,0,123610,1,1,0
Bar Mar by Jos%C3%A9 Andr%C3%A9s,/biz/bar-mar-by-jos%C3%A9-andr%C3%A9s-chicago?osq=Restaurants,60606,149,0.157675497,4.4,41.88417,-87.63712,"120 N Wacker Dr  Chicago, IL 60606  Washington St & Monroe St  The Loop",-,2045,62,1,16,0.5,0,0,0,0,1087,33,1,0,0,0,1047,98.1,1,3.9,1,130196,1,1,0
Gussie's Handmade Italian,/biz/gussies-handmade-italian-chicago?osq=Restaurants,60610,166,0.126748573,4.4,41.9108541,-87.6359523,"227 W North Ave, Chicago, IL 60610, United States",ChIJayq8iCvTD4gR0rGouR5iZis,30940,72.9,1,5110,12,0,97,0.2,0,4019,9.5,1,7,0,0,13574,89.6,1,3.1,0,99246,1,0,0
Ciccio Mio,/biz/ciccio-mio-chicago-2?osq=Restaurants,60654,156,0.15211873,4.7,41.889264,-87.6352141,"226 W Kinzie St, Chicago, IL 60654, United States",ChIJ3y7Zs1ctDogRSTUTHxxmFHI,16071,73.5,1,913,4.2,0,47,0.2,0,2671,12.2,1,0,0,0,8809,95.2,1,2.4,0,127072,1,1,0
Indienne,/biz/indienne-chicago?osq=Restaurants,60654,156,0.134061457,4.8,41.8945578,-87.635062,"217 W Huron St, Chicago, IL 60654, United States",ChIJgaWIsk8tDogRXfsAkui5JOM,16071,73.5,1,913,4.2,0,47,0.2,0,2671,12.2,1,0,0,0,8809,95.2,1,2.4,0,127072,1,1,0
Bereket Turkish Mediterranean Restaurant,/biz/bereket-turkish-mediterranean-restaurant-chicago?osq=Restaurants,60606,149,0.02198895,5,41.8771641,-87.6350232,"333 S Franklin St, Chicago, IL 60606, United States",ChIJRWQu36otDogRiuUdoiJ96rg,2045,62,1,16,0.5,0,0,0,0,1087,33,1,0,0,0,1047,98.1,1,3.9,1,130196,1,1,0
Bonchon,/biz/bonchon-chicago-2?osq=Restaurants,60622,218,0.079613489,3.8,41.8536843,-87.6349441,"2163 S China Pl #1f, Chicago, IL 60616, United States",ChIJbeU4mI8tDogRLwgldZC7UQw,41086,75.2,1,3868,7.1,0,32,0.1,0,2794,5.1,0,50,0.1,1,18379,85,1,3.1,0,110694,1,0,1
Daifuku Ramen,/biz/daifuku-ramen-chicago?osq=Restaurants,60616,195,0.090750979,4.6,41.8537638,-87.634506,"2155 S China Pl # A, Chicago, IL 60616, United States",ChIJZ_2ePhwtDogRNS0ykoAYcJ0,17968,33.8,0,12502,23.6,0,318,0.6,1,19788,37.3,1,0,0,0,9449,78.9,1,6.3,1,65489,0,1,1
The VIG Chicago,/biz/the-vig-chicago-chicago-2?osq=Restaurants,60610,166,0.206740509,4.1,41.9099152,-87.6344763,"1527 N Wells St, Chicago, IL 60610, United States",ChIJI9-FtkbTD4gREZQTuruTgt4,30940,72.9,1,5110,12,0,97,0.2,0,4019,9.5,1,7,0,0,13574,89.6,1,3.1,0,99246,1,0,0
Sushi By Bou - Coming Soon,/biz/sushi-by-bou-coming-soon-chicago?osq=Restaurants,60607,198,0.038505094,5,41.9152698,-87.6343802,"1816 N Clark St, Chicago, IL 60614, United States",ChIJCSTlCg_TD4gRJQzV_ECR9UE,16844,56.2,1,3742,12.5,0,107,0.4,0,6724,22.4,1,17,0.1,1,8429,88.1,1,7,1,109634,1,0,0
Sushi By Bou,/biz/sushi-by-bou-chicago?osq=Restaurants,60614,269,0.023138035,4.8,41.9152698,-87.6343802,"1816 N Clark St, Chicago, IL 60614, United States",ChIJCSTlCg_TD4gRJQzV_ECR9UE,59962,83.1,1,2863,4,0,27,0,0,5165,7.2,1,2,0,0,20623,93.3,1,3.4,0,123610,1,1,0
Hawaiian Bros Island Grill,/biz/hawaiian-bros-island-grill-chicago?osq=Restaurants,60618,177,0.117686772,4.1,41.8864436,-87.6342963,"205 W Wacker Dr, Chicago, IL 60606, United States",ChIJxXbje6bTD4gRgZkgTguetDE,62235,65.5,1,2661,2.8,0,199,0.2,0,6151,6.5,0,154,0.2,1,13382,65.7,1,4.8,1,91650,1,0,0
The L Station Lux & Soul,/biz/the-l-station-lux-and-soul-chicago?osq=Restaurants,60606,149,0.022176614,5,41.8853379,-87.6341608,"186 N Wells St, Chicago, IL 60606, United States",ChIJDQ2ZfpMtDogR93yPZkwW-Nk,2045,62,1,16,0.5,0,0,0,0,1087,33,1,0,0,0,1047,98.1,1,3.9,1,130196,1,1,0
MCCB Chicago %E6%97%B6%E5%B0%9A%E9%A3%9F%E8%B0%B1,/biz/mccb-chicago-%E6%97%B6%E5%B0%9A%E9%A3%9F%E8%B0%B1-chicago?osq=Restaurants,60616,195,0.129381188,4.5,41.85405012,-87.63327776,"2138 South Archer Ave  Chicago, IL 60616  Cermak Rd & 21st St  Chinatown",-,17968,33.8,0,12502,23.6,0,318,0.6,1,19788,37.3,1,0,0,0,9449,78.9,1,6.3,1,65489,0,1,1
Sushi + Rotary Sushi Bar - Chinatown,/biz/sushi-rotary-sushi-bar-chinatown-chicago-3?osq=Restaurants,60616,195,0.204116133,4.4,41.8535452,-87.6329132,"2131 S Archer Ave, Chicago, IL 60616, United States",ChIJu-1lgzwtDogRVOfHy8GBrDs,17968,33.8,0,12502,23.6,0,318,0.6,1,19788,37.3,1,0,0,0,9449,78.9,1,6.3,1,65489,0,1,1
Grill on 21,/biz/grill-on-21-chicago-2?osq=Restaurants,60601,118,0.017589055,3.9,41.8789847,-87.6324459,"208 S La Salle St, Chicago, IL 60604, United States",ChIJi9pYA2stDogRDgjYJM3e2D8,8683,58.7,1,1034,7,0,10,0.1,0,3865,26.1,1,0,0,0,5025,93.3,1,3.4,0,123115,1,1,0
River Roast,/biz/river-roast-chicago-3?osq=Restaurants,60654,156,0.14111376,4,41.8879482,-87.6322746,"315 N La Salle St, Chicago, IL 60654, United States",ChIJV_s6ILEsDogRR_5H7mQn4nw,16071,73.5,1,913,4.2,0,47,0.2,0,2671,12.2,1,0,0,0,8809,95.2,1,2.4,0,127072,1,1,1
Happy Lamb Hot Pot,/biz/happy-lamb-hot-pot-chicago?osq=Restaurants,60616,195,0.057116136,4.3,41.8497335,-87.6320863,"2342 S Wentworth Ave, Chicago, IL 60616, United States",ChIJ2XNoa2QsDogRMUkADowOkIw,17968,33.8,0,12502,23.6,0,318,0.6,1,19788,37.3,1,0,0,0,9449,78.9,1,6.3,1,65489,0,1,0
Qing Xiang Yuan Dumplings,/biz/qing-xiang-yuan-dumplings-chicago-3?osq=Restaurants,60616,195,0.252594059,4.2,41.8551711,-87.6319894,"2002 S Wentworth Ave #103, Chicago, IL 60616, United States",ChIJMaWLcmIsDogR7d-87VAKkbQ,17968,33.8,0,12502,23.6,0,318,0.6,1,19788,37.3,1,0,0,0,9449,78.9,1,6.3,1,65489,0,1,1
The X Pot,/biz/the-x-pot-chicago?osq=Restaurants,60605,107,0.163524138,4.3,41.867632,-87.6319585,"1147 S Delano Ct East, Chicago, IL 60605, United States",ChIJFSy84_0tDogRCibwjlnDRts,20129,62.8,1,4620,14.4,0,49,0.2,0,4942,15.4,1,0,0,0,8623,84.3,1,6.8,1,112162,1,1,0
Arbella,/biz/arbella-chicago?osq=Restaurants,60654,156,0.08369116,4.4,41.891741,-87.6317757,"112 W Grand Ave, Chicago, IL 60654, United States",ChIJ-6dlubMsDogRavEceBs79j0,16071,73.5,1,913,4.2,0,47,0.2,0,2671,12.2,1,0,0,0,8809,95.2,1,2.4,0,127072,1,1,1
Spicy Grandma Kitchen,/biz/spicy-grandma-kitchen-chicago-2?osq=Restaurants,60616,195,0.01761496,4.3,41.8494563,-87.6317029,"2353 S Wentworth Ave, Chicago, IL 60616, United States",ChIJwdT0tqwtDogRqI4rozWovkA,17968,33.8,0,12502,23.6,0,318,0.6,1,19788,37.3,1,0,0,0,9449,78.9,1,6.3,1,65489,0,1,0
Tandoor Char House,/biz/tandoor-char-house-chicago-5?osq=Restaurants,60622,218,0.013320613,4.2,41.8902082,-87.6316225,"110 W Hubbard St, Chicago, IL 60654, United States",ChIJO0_HWFYtDogRwzMXz98OrGw,41086,75.2,1,3868,7.1,0,32,0.1,0,2794,5.1,0,50,0.1,1,18379,85,1,3.1,0,110694,1,0,1
Seoul Taco,/biz/seoul-taco-chicago-7?osq=Restaurants,60622,218,0.084626064,4.8,41.8960136,-87.6316048,"738 N Clark St, Chicago, IL 60654, United States",ChIJ_z01xUzTD4gRoIMucXz0La0,41086,75.2,1,3868,7.1,0,32,0.1,0,2794,5.1,0,50,0.1,1,18379,85,1,3.1,0,110694,1,0,0
Seoul Taco,/biz/seoul-taco-chicago-2?osq=Restaurants,60654,156,0.103925861,4.1,41.8960136,-87.6316048,"738 N Clark St, Chicago, IL 60654, United States",ChIJ_z01xUzTD4gRoIMucXz0La0,16071,73.5,1,913,4.2,0,47,0.2,0,2671,12.2,1,0,0,0,8809,95.2,1,2.4,0,127072,1,1,0
Jaleo by Jos%C3%A9 Andr%C3%A9s,/biz/jaleo-by-jos%C3%A9-andr%C3%A9s-chicago?osq=Restaurants,60654,156,0.130173064,3.8,41.8910962,-87.63130881,"500 N Clark St  Chicago, IL 60654  River North, Near North Side",-,16071,73.5,1,913,4.2,0,47,0.2,0,2671,12.2,1,0,0,0,8809,95.2,1,2.4,0,127072,1,1,1
LIVA,/biz/liva-chicago?osq=Restaurants,60654,156,0.004367771,5,41.8959707,-87.6310641,"739 N Clark St, Chicago, IL 60654, United States",ChIJ76nqJ03TD4gRqoioj78_co8,16071,73.5,1,913,4.2,0,47,0.2,0,2671,12.2,1,0,0,0,8809,95.2,1,2.4,0,127072,1,1,0
LIVA at Chicago Winery,/biz/liva-at-chicago-winery-chicago-3?osq=Restaurants,60654,156,0.073514737,5,41.8959707,-87.6310641,"739 N Clark St, Chicago, IL 60654, United States",ChIJ76nqJ03TD4gRqoioj78_co8,16071,73.5,1,913,4.2,0,47,0.2,0,2671,12.2,1,0,0,0,8809,95.2,1,2.4,0,127072,1,1,0
Ema,/biz/ema-chicago-6?osq=Restaurants,60654,156,0.139749803,4.3,41.8909595,-87.6308965,"74 W Illinois St, Chicago, IL 60654, United States",ChIJR1SjLbIsDogR2hKQQejxOtc,16071,73.5,1,913,4.2,0,47,0.2,0,2671,12.2,1,0,0,0,8809,95.2,1,2.4,0,127072,1,1,1
Three Dots and A Dash,/biz/three-dots-and-a-dash-chicago?osq=Restaurants,60654,156,0.076137674,4.1,41.8902505,-87.6307448,"435 N Clark St, Chicago, IL 60654, United States",ChIJiX4KgLEsDogR8gugSnSptzY,16071,73.5,1,913,4.2,0,47,0.2,0,2671,12.2,1,0,0,0,8809,95.2,1,2.4,0,127072,1,1,1
Antique Taco,/biz/antique-taco-chicago?osq=Restaurants,60622,218,0.12563311,4.1,41.8799308,-87.6305172,"125 S Clark St, Chicago, IL 60603, United States",ChIJ-aYHkLwsDogRbUBAafe4QgU,41086,75.2,1,3868,7.1,0,32,0.1,0,2794,5.1,0,50,0.1,1,18379,85,1,3.1,0,110694,1,0,0
3 Arts Club Cafe,/biz/3-arts-club-cafe-chicago-10?osq=Restaurants,60610,166,0.040041191,4.1,41.905978,-87.6304406,"1300 N Dearborn St, Chicago, IL 60610, United States",ChIJI9-bbkXTD4gRXW_oUmh1zrg,30940,72.9,1,5110,12,0,97,0.2,0,4019,9.5,1,7,0,0,13574,89.6,1,3.1,0,99246,1,0,0
Kong Dog,/biz/kong-dog-chicago?osq=Restaurants,60607,198,0.136048828,4,41.8545724,-87.6304378,"2026 S Clark St Unit F, Chicago, IL 60616, United States",ChIJjRc4IgItDogRIRU5fahUqHQ,16844,56.2,1,3742,12.5,0,107,0.4,0,6724,22.4,1,17,0.1,1,8429,88.1,1,7,1,109634,1,0,1
Barrio,/biz/barrio-chicago?osq=Restaurants,60654,156,0.132555608,4.2,41.8890412,-87.6304305,"353 North Clark, 65 W Kinzie St, Chicago, IL 60654, United States",ChIJhXG8orEsDogRA9eL9NhvwRE,16071,73.5,1,913,4.2,0,47,0.2,0,2671,12.2,1,0,0,0,8809,95.2,1,2.4,0,127072,1,1,1
RAMEN-SAN,/biz/ramen-san-chicago?osq=Restaurants,60654,156,0.017732574,4.2,41.8899006,-87.6303638,"59 W Hubbard St #2, Chicago, IL 60654, United States",ChIJywehhLEsDogR9KhezOlGDPo,16071,73.5,1,913,4.2,0,47,0.2,0,2671,12.2,1,0,0,0,8809,95.2,1,2.4,0,127072,1,1,1
Il Porcellino,/biz/il-porcellino-chicago?osq=Restaurants,60654,156,0.140383416,4.3,41.8899515,-87.6302966,"59 W Hubbard St #2, Chicago, IL 60654, United States",ChIJJ3QOj7EsDogRnP9Ty8gAjlU,16071,73.5,1,913,4.2,0,47,0.2,0,2671,12.2,1,0,0,0,8809,95.2,1,2.4,0,127072,1,1,1
The Dearborn,/biz/the-dearborn-chicago-2?osq=Restaurants,60602,62,0.398390937,4.3,41.8843373,-87.6292766,"145 N Dearborn St, Chicago, IL 60602, United States",ChIJ-XdXNKUsDogRW-m5g5Siao8,623,54.6,1,38,3.3,0,380,33.3,1,101,8.8,1,0,0,0,335,67.5,1,0,0,235666,1,1,0
Cabaret Zazou,/biz/cabaret-zazou-chicago?osq=Restaurants,60601,118,0.145714725,4.8,41.8850059,-87.6287918,"32 W Randolph St 14th floor, Chicago, IL 60601, United States",ChIJq6UVHTMtDogRqvIFUBU2Wx4,8683,58.7,1,1034,7,0,10,0.1,0,3865,26.1,1,0,0,0,5025,93.3,1,3.4,0,123115,1,1,0
Maple & Ash,/biz/maple-and-ash-chicago?osq=Restaurants,60610,166,0.18175962,4.2,41.9020389,-87.6287472,"8 W Maple St, Chicago, IL 60610, United States",ChIJE8GjKE7TD4gR9CouUZM2Gis,30940,72.9,1,5110,12,0,97,0.2,0,4019,9.5,1,7,0,0,13574,89.6,1,3.1,0,99246,1,0,0
Bhoomi Modern Indian Grill,/biz/bhoomi-modern-indian-grill-chicago?osq=Restaurants,60602,62,0.004374517,4.9,41.8829463,-87.6286206,"15 W Washington St, Chicago, IL 60602, United States",ChIJR-m5HnotDogR8B8NixjGuok,623,54.6,1,38,3.3,0,380,33.3,1,101,8.8,1,0,0,0,335,67.5,1,0,0,235666,1,1,0
Polombia,/biz/polombia-chicago?osq=Restaurants,60602,62,0.013147887,4.5,41.8829813,-87.6285842,"Urban Space, 15 W Washington St, Chicago, IL 60602, United States",ChIJQ7BrowYtDogROp_cGiPanQU,623,54.6,1,38,3.3,0,380,33.3,1,101,8.8,1,0,0,0,335,67.5,1,0,0,235666,1,1,0
Velvet Taco,/biz/velvet-taco-chicago-5?osq=Restaurants,60610,166,0.026619458,4.2,41.9022009,-87.6285667,"1110 N State St, Chicago, IL 60610, United States",ChIJsQBKKE7TD4gRzk4bQL8afws,30940,72.9,1,5110,12,0,97,0.2,0,4019,9.5,1,7,0,0,13574,89.6,1,3.1,0,99246,1,0,0
Radio Room,/biz/radio-room-chicago?osq=Restaurants,60654,156,0.130222648,3.9,41.889389,-87.6281551,"400 N State St, Chicago, IL 60654, United States",ChIJ82QpFzYtDogRhTRfgK0kdTI,16071,73.5,1,913,4.2,0,47,0.2,0,2671,12.2,1,0,0,0,8809,95.2,1,2.4,0,127072,1,1,1
Thai Basil,/biz/thai-basil-chicago?osq=Restaurants,60622,218,0.004388247,3.9,41.8936249,-87.6279255,"631 N State St, Chicago, IL 60654, United States",ChIJNX4s5r8tDogRte3GpGXu5NA,41086,75.2,1,3868,7.1,0,32,0.1,0,2794,5.1,0,50,0.1,1,18379,85,1,3.1,0,110694,1,0,1
Gordon Ramsay Burger,/biz/gordon-ramsay-burger-chicago?osq=Restaurants,60611,211,0.108533887,3.6,41.8935196,-87.627921,"2 E Ontario St, Chicago, IL 60611, United States",ChIJKQMYP-stDogRylePgyGTXjw,24162,69.9,1,1077,3.1,0,36,0.1,0,7172,20.8,1,0,0,0,9050,96.5,1,2.5,0,117344,1,1,1
Pollo Campero,/biz/pollo-campero-chicago-6?osq=Restaurants,60611,211,0.031072729,5,41.8968561,-87.6273611,"20 E Chicago Ave, Chicago, IL 60611, United States",ChIJny5bDZvTD4gR3tNMiW7pLaM,24162,69.9,1,1077,3.1,0,36,0.1,0,7172,20.8,1,0,0,0,9050,96.5,1,2.5,0,117344,1,1,0
Yardbird,/biz/yardbird-chicago?osq=Restaurants,60654,156,0.459515832,3.8,41.8918834,-87.6270332,"530 N Wabash Ave, Chicago, IL 60654, United States",ChIJqxH3MW8tDogR0L1uFTO2IvQ,16071,73.5,1,913,4.2,0,47,0.2,0,2671,12.2,1,0,0,0,8809,95.2,1,2.4,0,127072,1,1,1
Wake N Bakery,/biz/wake-n-bakery-chicago-4?osq=Restaurants,60614,269,0.027103772,4,41.8934665,-87.6266024,"38 E Ontario St, Chicago, IL 60611, United States",ChIJt1qdLRotDogRWRf_bgysNEM,59962,83.1,1,2863,4,0,27,0,0,5165,7.2,1,2,0,0,20623,93.3,1,3.4,0,123610,1,1,1
Union,/biz/union-chicago-4?osq=Restaurants,60647,248,0.271699475,4.7,41.8788749,-87.6264788,"218 S Wabash Ave, Chicago, IL 60604, United States",ChIJQydJP70sDogRI6hqPubRXt0,58385,68.2,1,5701,6.7,0,476,0.6,1,3658,4.3,0,62,0.1,1,20518,76.1,1,3.7,1,89974,1,0,1
Doc B's Restaurant + Bar,/biz/doc-bs-restaurant-bar-chicago-4?osq=Restaurants,60611,211,0.102066612,4.4,41.891576,-87.6263033,"55 E Grand Ave, Chicago, IL 60611, United States",ChIJ164utK0sDogRiAwE1he3T-c,24162,69.9,1,1077,3.1,0,36,0.1,0,7172,20.8,1,0,0,0,9050,96.5,1,2.5,0,117344,1,1,1
Doc B's Restaurant + Bar,/biz/doc-bs-restaurant-bar-chicago-3?osq=Restaurants,60611,211,0.022383078,3.9,41.891576,-87.6263033,"55 E Grand Ave, Chicago, IL 60611, United States",ChIJ164utK0sDogRiAwE1he3T-c,24162,69.9,1,1077,3.1,0,36,0.1,0,7172,20.8,1,0,0,0,9050,96.5,1,2.5,0,117344,1,1,1
The Bristol,/biz/the-bristol-chicago?osq=Restaurants,60647,248,0.127858224,4,41.8990596,-87.6261589,"57 E Delaware Pl, Chicago, IL 60611, United States",ChIJA7vGSVLTD4gRIoOXVaOBNUM,58385,68.2,1,5701,6.7,0,476,0.6,1,3658,4.3,0,62,0.1,1,20518,76.1,1,3.7,1,89974,1,0,0
Eataly Chicago,/biz/eataly-chicago-chicago-6?osq=Restaurants,60611,211,0.123122757,3.9,41.8920991,-87.6259524,"43 E Ohio St, Chicago, IL 60611, United States",ChIJe_Fq2lctDogRTpK221p4Fmg,24162,69.9,1,1077,3.1,0,36,0.1,0,7172,20.8,1,0,0,0,9050,96.5,1,2.5,0,117344,1,1,1
Giant,/biz/giant-chicago-2?osq=Restaurants,60647,248,0.278017829,4.3,41.8803304,-87.6256792,"55 E Monroe St #3800, Chicago, IL 60603, United States",ChIJaYmkeKQsDogR99AEBkiU9pU,58385,68.2,1,5701,6.7,0,476,0.6,1,3658,4.3,0,62,0.1,1,20518,76.1,1,3.7,1,89974,1,0,1
Cindy's Rooftop,/biz/cindys-rooftop-chicago?osq=Restaurants,60603,78,0.157599409,4.1,41.881662,-87.6249684,"12 S Michigan Ave, Chicago, IL 60603, United States",ChIJeYbaOKQsDogRfJrgIMgDNvE,756,59.3,1,71,5.6,0,0,0,0,397,31.1,1,0,0,0,323,98.8,1,5.2,1,114394,1,1,1
Eden,/biz/eden-chicago-11?osq=Restaurants,60618,177,0.045200496,4.4,41.8830278,-87.624905,"30 N Michigan Ave # 1410, Chicago, IL 60602, United States",ChIJk40LNKQsDogRRY9qSVGILQg,62235,65.5,1,2661,2.8,0,199,0.2,0,6151,6.5,0,154,0.2,1,13382,65.7,1,4.8,1,91650,1,0,1
Sweetgreen,/biz/sweetgreen-chicago-24?osq=Restaurants,60614,269,0.032748276,4.9,41.8849641,-87.6247284,"150 N Michigan Ave, Chicago, IL 60601, United States",ChIJS1BWjKUsDogRTzKzvjcNxP4,59962,83.1,1,2863,4,0,27,0,0,5165,7.2,1,2,0,0,20623,93.3,1,3.4,0,123610,1,1,0
Remington's,/biz/remingtons-chicago?osq=Restaurants,60602,62,0.055148686,4.2,41.8826897,-87.6246716,"20 N Michigan Ave, Chicago, IL 60602, United States",ChIJfecaS6QsDogRYoT-1zdAdJE,623,54.6,1,38,3.3,0,380,33.3,1,101,8.8,1,0,0,0,335,67.5,1,0,0,235666,1,1,1
The Gage,/biz/the-gage-chicago?osq=Restaurants,60603,78,0.220538954,4.2,41.8813255,-87.6246582,"24 S Michigan Ave, Chicago, IL 60603, United States",ChIJ5a8ra6QsDogRENtJLAp40AE,756,59.3,1,71,5.6,0,0,0,0,397,31.1,1,0,0,0,323,98.8,1,5.2,1,114394,1,1,1
The Purple Pig,/biz/the-purple-pig-chicago?osq=Restaurants,60611,211,0.764913681,4.2,41.890739,-87.6245691,"444 Michigan Ave, Chicago, IL 60611, United States",ChIJl8NTEawsDogRwXH-IVDyH2A,24162,69.9,1,1077,3.1,0,36,0.1,0,7172,20.8,1,0,0,0,9050,96.5,1,2.5,0,117344,1,1,1
Giordano's,/biz/giordanos-chicago-30?osq=Restaurants,60601,118,0.035182754,3.8,41.8851301,-87.6237612,"130 E Randolph St, Chicago, IL 60601, United States",ChIJh3i0BqYsDogR6yp0y6TFlOQ,8683,58.7,1,1034,7,0,10,0.1,0,3865,26.1,1,0,0,0,5025,93.3,1,3.4,0,123115,1,1,0
Lips - Chicago,/biz/lips-chicago-chicago-2?osq=Restaurants,60616,195,0.017637254,4.3,41.85205,-87.62334,"2229 S Michigan Ave, Chicago, IL 60616, United States",ChIJpWSYupEtDogRt8P_TgzoudA,17968,33.8,0,12502,23.6,0,318,0.6,1,19788,37.3,1,0,0,0,9449,78.9,1,6.3,1,65489,0,1,0
The Hampton Social - Streeterville,/biz/the-hampton-social-streeterville-chicago-5?osq=Restaurants,60611,211,0.09315722,4.2,41.8920666,-87.6229186,"164 E Grand Ave, Chicago, IL 60611, United States",ChIJBReOeSEtDogRtG7X4jctrOQ,24162,69.9,1,1077,3.1,0,36,0.1,0,7172,20.8,1,0,0,0,9050,96.5,1,2.5,0,117344,1,1,0
Curfew Chicago,/biz/curfew-chicago-chicago?osq=Restaurants,60611,211,0.161406001,4.5,41.8934749,-87.6229078,"162 E Ontario St, Chicago, IL 60611, United States",ChIJbQKwaKssDogRfJK0Ng-SI_4,24162,69.9,1,1077,3.1,0,36,0.1,0,7172,20.8,1,0,0,0,9050,96.5,1,2.5,0,117344,1,1,0
Wildberry Pancakes and Cafe,/biz/wildberry-pancakes-and-cafe-chicago-2?osq=Restaurants,60601,118,0.136356789,4.4,41.8847209,-87.6228606,"130 E Randolph St, Chicago, IL 60601, United States",ChIJbwD-GqYsDogRFT9FTurCL5U,8683,58.7,1,1034,7,0,10,0.1,0,3865,26.1,1,0,0,0,5025,93.3,1,3.4,0,123115,1,1,0
Beatrix - Streeterville,/biz/beatrix-streeterville-chicago-2?osq=Restaurants,60611,211,0.1445412,4.3,41.8946864,-87.6225031,"673 N St Clair St, Chicago, IL 60611, United States",ChIJb1O-SKssDogRoc2PnQgmteM,24162,69.9,1,1077,3.1,0,36,0.1,0,7172,20.8,1,0,0,0,9050,96.5,1,2.5,0,117344,1,1,0
MingHin Cuisine,/biz/minghin-cuisine-chicago-3?osq=Restaurants,60616,195,0.013250172,3.9,41.8851696,-87.6191526,"333 E Benton Pl #300, Chicago, IL 60601, United States",ChIJ3e_t_1crDogRI4rZtpc8-uQ,17968,33.8,0,12502,23.6,0,318,0.6,1,19788,37.3,1,0,0,0,9449,78.9,1,6.3,1,65489,0,1,0
Pinched on the River,/biz/pinched-on-the-river-chicago?osq=Restaurants,60611,211,0.195111355,4.4,41.8909044,-87.6160861,"443 E Illinois St, Chicago, IL 60611, United States",ChIJaR1KvmwrDogRHNnnERSaJls,24162,69.9,1,1077,3.1,0,36,0.1,0,7172,20.8,1,0,0,0,9050,96.5,1,2.5,0,117344,1,1,0
Chef Art Smith's Reunion,/biz/chef-art-smiths-reunion-chicago?osq=Restaurants,60611,211,0.079064349,4.3,41.8914703,-87.6096683,"Navy Pier, 600 E Grand Ave, Chicago, IL 60611, United States",ChIJfVxFK68rDogRUaoq6oqEUmY,24162,69.9,1,1077,3.1,0,36,0.1,0,7172,20.8,1,0,0,0,9050,96.5,1,2.5,0,117344,1,1,0
The Chef's Spot,/biz/the-chef-s-spot-chicago?osq=Restaurants,60614,269,0.004454292,4.5,41.8914703,-87.6096683,"Navy Pier, 600 E Grand Ave, Chicago, IL 60611, United States",ChIJfVxFK68rDogRUaoq6oqEUmY,59962,83.1,1,2863,4,0,27,0,0,5165,7.2,1,2,0,0,20623,93.3,1,3.4,0,123610,1,1,0
SafeHouse Chicago,/biz/safehouse-chicago-chicago?osq=Restaurants,60611,211,0.151000172,4,41.8166793,-87.601476,"4301 S Ellis Ave, Chicago, IL 60653, United States",ChIJX0QY0SgrDogRlJwsLKtahnI,24162,69.9,1,1077,3.1,0,36,0.1,0,7172,20.8,1,0,0,0,9050,96.5,1,2.5,0,117344,1,1,0